{"version": 0.6, "generator": "Overpass API 0.7.62.4 2390de5a", "osm3s": {"timestamp_osm_base": "2025-01-03T16:42:43Z", "copyright": "The data included in this document is from www.openstreetmap.org. The data is made available under ODbL."}, "elements": [{"type": "node", "id": 29579775, "lat": 51.8874246, "lon": 4.4656938, "tags": {"name": "Van Blommesteynweg", "public_transport": "stop_position", "railway": "tram_stop", "tram": "yes", "zone": "5314"}}, {"type": "node", "id": 44561355, "lat": 51.9515395, "lon": 4.4894591, "tags": {"name": "Bergse Plaslaan", "public_transport": "stop_position", "railway": "tram_stop", "tram": "yes"}}, {"type": "node", "id": 290931124, "lat": 51.9080886, "lon": 4.4918928, "tags": {"name": "Wilhelminaplein", "public_transport": "stop_position", "railway": "tram_stop", "tram": "yes"}}, {"type": "node", "id": 290946461, "lat": 51.921453, "lon": 4.5065643, "tags": {"name": "Willem Ruyslaan", "public_transport": "stop_position", "railway": "tram_stop", "tram": "yes"}}, {"type": "node", "id": 323088655, "lat": 51.934081, "lon": 4.465004, "tags": {"name": "Schieweg", "public_transport": "stop_position", "railway": "tram_stop", "tactile_paving": "no", "tram": "yes", "wheelchair": "yes"}}, {"type": "node", "id": 323090730, "lat": 51.9528145, "lon": 4.4691607, "tags": {"name": "Teldersweg", "public_transport": "stop_position", "railway": "tram_stop", "tram": "yes", "wheelchair": "yes"}}, {"type": "node", "id": 323091210, "lat": 51.9582315, "lon": 4.4680506, "tags": {"name": "Kastanjeplein", "public_transport": "stop_position", "railway": "tram_stop", "tram": "yes"}}, {"type": "node", "id": 333779868, "lat": 51.9058016, "lon": 4.4988794, "tags": {"name": "Lodewijk Pincoffsweg", "public_transport": "stop_position", "railway": "tram_stop", "tram": "yes"}}, {"type": "node", "id": 333780704, "lat": 51.903747, "lon": 4.5036991, "tags": {"name": "Vuurplaat", "public_transport": "stop_position", "railway": "tram_stop", "tram": "yes"}}, {"type": "node", "id": 582544759, "lat": 51.9244313, "lon": 4.4960038, "tags": {"name": "Oostplein", "network": "Rail Rotterdam", "network:wikidata": "Q108718112", "operator": "RET", "public_transport": "stop_position", "railway": "tram_stop", "tactile_paving": "no", "tram": "yes"}}, {"type": "node", "id": 611703511, "lat": 51.9100176, "lon": 4.4454496, "tags": {"name": "Delfshaven", "public_transport": "stop_position", "railway": "tram_stop", "route_ref": "4;8", "tram": "yes"}}, {"type": "node", "id": 611729445, "lat": 51.8691879, "lon": 4.498043, "tags": {"name": "Vrijenburgerbos", "public_transport": "stop_position", "railway": "tram_stop", "tram": "yes"}}, {"type": "node", "id": 611729447, "lat": 51.8691653, "lon": 4.4978269, "tags": {"name": "Vrijenburgerbos", "public_transport": "stop_position", "railway": "tram_stop", "tram": "yes"}}, {"type": "node", "id": 611729510, "lat": 51.8892485, "lon": 4.5076106, "tags": {"name": "Sandelingplein", "public_transport": "stop_position", "railway": "tram_stop", "tram": "yes"}}, {"type": "node", "id": 611731681, "lat": 51.9615745, "lon": 4.4718994, "tags": {"name": "Larikslaan", "public_transport": "stop_position", "railway": "tram_stop", "tram": "yes"}}, {"type": "node", "id": 611779251, "lat": 51.8969506, "lon": 4.4938013, "tags": {"name": "Maashaven", "public_transport": "stop_position", "railway": "tram_stop", "tram": "yes"}}, {"type": "node", "id": 666968958, "lat": 51.9131507, "lon": 4.4820371, "tags": {"name": "Leuvehaven", "public_transport": "stop_position", "railway": "tram_stop", "tram": "yes"}}, {"type": "node", "id": 666968960, "lat": 51.9117762, "lon": 4.4784777, "tags": {"name": "Vasteland", "public_transport": "stop_position", "railway": "tram_stop", "tram": "yes", "wheelchair": "limited"}}, {"type": "node", "id": 666968962, "lat": 51.9149788, "lon": 4.4750876, "tags": {"name": "Museumpark", "public_transport": "stop_position", "railway": "tram_stop", "tram": "yes"}}, {"type": "node", "id": 666972237, "lat": 51.9167824, "lon": 4.4731753, "tags": {"name": "Eendrachtsplein", "public_transport": "stop_position", "railway": "tram_stop", "tram": "yes"}}, {"type": "node", "id": 668640472, "lat": 51.9452964, "lon": 4.4758125, "tags": {"name": "Bergpolderplein", "public_transport": "stop_position", "railway": "tram_stop", "tram": "yes"}}, {"type": "node", "id": 668646314, "lat": 51.9097421, "lon": 4.4718275, "tags": {"name": "Kievitslaan", "public_transport": "stop_position", "railway": "tram_stop", "tram": "yes", "wheelchair": "limited"}}, {"type": "node", "id": 668646490, "lat": 51.90536, "lon": 4.4601174, "tags": {"name": "Pieter de Hoochweg", "public_transport": "stop_position", "railway": "tram_stop", "tram": "yes"}}, {"type": "node", "id": 668647492, "lat": 51.9037245, "lon": 4.4538007, "tags": {"name": "Oostkousdijk", "public_transport": "stop_position", "railway": "tram_stop", "tram": "yes"}}, {"type": "node", "id": 668649814, "lat": 51.9042413, "lon": 4.4469092, "tags": {"name": "Schiemond", "public_transport": "stop_position", "railway": "tram_stop", "tram": "yes"}}, {"type": "node", "id": 668716081, "lat": 51.9105588, "lon": 4.4424534, "tags": {"name": "Van Duylstraat", "public_transport": "stop_position", "railway": "tram_stop", "route_ref": "4;8", "tram": "yes"}}, {"type": "node", "id": 668725829, "lat": 51.9124239, "lon": 4.455858, "tags": {"name": "Heemraadsplein", "public_transport": "stop_position", "railway": "tram_stop", "route_ref": "4", "tram": "yes", "wheelchair": "yes"}}, {"type": "node", "id": 668727069, "lat": 51.9138728, "lon": 4.4640692, "tags": {"name": "'s-Gravendijkwal", "public_transport": "stop_position", "railway": "tram_stop", "tram": "yes"}}, {"type": "node", "id": 668727070, "lat": 51.9132503, "lon": 4.4604206, "tags": {"name": "Claes de Vrieselaan", "public_transport": "stop_position", "railway": "tram_stop", "route_ref": "4", "tram": "yes"}}, {"type": "node", "id": 668727692, "lat": 51.9161943, "lon": 4.4691265, "tags": {"name": "Bloemkwekersstraat", "public_transport": "stop_position", "railway": "tram_stop", "tram": "yes"}}, {"type": "node", "id": 668733215, "lat": 51.9297125, "lon": 4.4803541, "tags": {"name": "Noordsingel", "public_transport": "stop_position", "railway": "tram_stop", "tram": "yes"}}, {"type": "node", "id": 668747534, "lat": 51.9580073, "lon": 4.5009191, "tags": {"name": "De Montignyplein", "public_transport": "stop_position", "railway": "tram_stop", "tram": "yes"}}, {"type": "node", "id": 671435841, "lat": 51.8894026, "lon": 4.5076443, "tags": {"name": "Sandelingplein", "public_transport": "stop_position", "railway": "tram_stop", "tram": "yes"}}, {"type": "node", "id": 671435847, "lat": 51.8832969, "lon": 4.5049545, "tags": {"name": "Groene Hilledijk", "public_transport": "stop_position", "railway": "tram_stop", "tram": "yes"}}, {"type": "node", "id": 671435852, "lat": 51.8785396, "lon": 4.5078854, "tags": {"name": "Paasweide", "public_transport": "stop_position", "railway": "tram_stop", "tram": "yes"}}, {"type": "node", "id": 671438152, "lat": 51.8602443, "lon": 4.5024687, "tags": {"name": "Vrijenburg", "public_transport": "stop_position", "railway": "tram_stop", "tactile_paving": "yes", "tram": "yes", "wheelchair": "yes"}}, {"type": "node", "id": 671438163, "lat": 51.8740124, "lon": 4.4954972, "tags": {"name": "Langenhorst", "public_transport": "stop_position", "railway": "tram_stop", "tram": "yes"}}, {"type": "node", "id": 671446518, "lat": 51.8950786, "lon": 4.5064439, "tags": {"name": "Hillevliet", "public_transport": "stop_position", "railway": "tram_stop", "tram": "yes"}}, {"type": "node", "id": 671446520, "lat": 51.8974882, "lon": 4.5022353, "tags": {"name": "Putsebocht", "public_transport": "stop_position", "railway": "tram_stop", "tram": "yes"}}, {"type": "node", "id": 671446521, "lat": 51.8969981, "lon": 4.4938809, "tags": {"name": "Maashaven", "public_transport": "stop_position", "railway": "tram_stop", "tram": "yes"}}, {"type": "node", "id": 671449162, "lat": 51.8943752, "lon": 4.483956, "tags": {"name": "Brielselaan", "public_transport": "stop_position", "railway": "tram_stop", "tram": "yes"}}, {"type": "node", "id": 671449163, "lat": 51.8913266, "lon": 4.4782374, "tags": {"name": "Pleinweg", "public_transport": "stop_position", "railway": "tram_stop", "tram": "yes"}}, {"type": "node", "id": 671449169, "lat": 51.8907242, "lon": 4.4691894, "tags": {"name": "Frans Bekkerstraat", "public_transport": "stop_position", "railway": "tram_stop", "tram": "yes"}}, {"type": "node", "id": 671451012, "lat": 51.8829909, "lon": 4.4647463, "tags": {"name": "Kromme Zandweg", "public_transport": "stop_position", "railway": "tram_stop", "tram": "yes"}}, {"type": "node", "id": 946115492, "lat": 51.9170988, "lon": 4.4536399, "tags": {"name": "Vierambachtsstraat", "public_transport": "stop_position", "railway": "tram_stop", "tram": "yes"}}, {"type": "node", "id": 1028563026, "lat": 51.9195926, "lon": 4.4765097, "tags": {"name": "Lijnbaan", "public_transport": "stop_position", "railway": "tram_stop", "tram": "yes"}}, {"type": "node", "id": 1028861752, "lat": 51.9192916, "lon": 4.4645599, "tags": {"name": "Tiendplein", "public_transport": "stop_position", "railway": "tram_stop", "tram": "yes"}}, {"type": "node", "id": 1028898360, "lat": 51.9142691, "lon": 4.4590368, "tags": {"name": "Claes de Vrieselaan", "network": "Rail Rotterdam", "operator": "RET", "public_transport": "stop_position", "railway": "tram_stop", "tram": "yes"}}, {"type": "node", "id": 1031523864, "lat": 51.9135794, "lon": 4.4534703, "tags": {"name": "Heemraadsplein", "network": "Rail Rotterdam", "operator": "RET", "public_transport": "stop_position", "railway": "tram_stop", "tram": "yes"}}, {"type": "node", "id": 1196125881, "lat": 51.9327348, "lon": 4.4877652, "tags": {"name": "Zaagmolenbrug", "public_transport": "stop_position", "railway": "tram_stop", "tram": "yes"}}, {"type": "node", "id": 1322464438, "lat": 51.9099239, "lon": 4.4465496, "tags": {"name": "Delfshaven", "public_transport": "stop_position", "railway": "tram_stop", "route_ref": "4", "tram": "yes"}}, {"type": "node", "id": 1461126216, "lat": 51.9425562, "lon": 4.4810762, "tags": {"name": "Station Noord", "public_transport": "stop_position", "railway": "tram_stop", "tram": "yes", "zone": "5300;5310"}}, {"type": "node", "id": 1611090299, "lat": 51.9097989, "lon": 4.4826368, "tags": {"name": "Willemsplein", "public_transport": "stop_position", "railway": "tram_stop", "tram": "yes", "wikidata": "Q96739160"}}, {"type": "node", "id": 1716780176, "lat": 51.8913674, "lon": 4.4727662, "tags": {"name": "Dorpsweg", "public_transport": "stop_position", "railway": "tram_stop", "tram": "yes", "zone": "5314"}}, {"type": "node", "id": 1953660223, "lat": 51.9320166, "lon": 4.497422, "tags": {"name": "Boezemstraat", "public_transport": "stop_position", "railway": "tram_stop", "tram": "yes"}}, {"type": "node", "id": 2351978937, "lat": 51.9246236, "lon": 4.4788494, "tags": {"name": "Pompenburg", "network": "Rail Rotterdam", "network:wikidata": "Q108718112", "operator": "RET", "operator:wikidata": "Q839557", "public_transport": "stop_position", "railway": "tram_stop", "tram": "yes"}}, {"type": "node", "id": 2351978938, "lat": 51.9246716, "lon": 4.4788252, "tags": {"name": "Pompenburg", "network": "Rail Rotterdam", "network:wikidata": "Q108718112", "operator": "RET", "operator:wikidata": "Q839557", "public_transport": "stop_position", "railway": "tram_stop", "tram": "yes"}}, {"type": "node", "id": 2351978939, "lat": 51.9247407, "lon": 4.4795507, "tags": {"name": "Pompenburg", "network": "Rail Rotterdam", "network:wikidata": "Q108718112", "operator": "RET", "operator:wikidata": "Q839557", "public_transport": "stop_position", "railway": "tram_stop", "tram": "yes", "wikidata": "Q100700927"}}, {"type": "node", "id": 2351978940, "lat": 51.9235306, "lon": 4.4708851, "tags": {"name": "Rotterdam Centraal", "operator": "RET", "public_transport": "stop_position", "railway": "tram_stop", "ref": "A", "route_ref": "4;8;21;23;24", "tactile_paving": "yes", "tram": "yes"}}, {"type": "node", "id": 2351978941, "lat": 51.9235337, "lon": 4.4709709, "tags": {"name": "Rotterdam Centraal", "operator": "RET", "public_transport": "stop_position", "railway": "tram_stop", "ref": "B", "route_ref": "7;20;25", "tactile_paving": "yes", "tram": "yes"}}, {"type": "node", "id": 2351978942, "lat": 51.9239802, "lon": 4.470923, "tags": {"name": "Rotterdam Centraal", "operator": "RET", "public_transport": "stop_position", "railway": "tram_stop", "ref": "C", "route_ref": "21;23;24", "tactile_paving": "yes", "tram": "yes"}}, {"type": "node", "id": 2351978943, "lat": 51.9239849, "lon": 4.4710069, "tags": {"name": "Rotterdam Centraal", "operator": "RET", "public_transport": "stop_position", "railway": "tram_stop", "ref": "D", "route_ref": "4;7;8;12;25", "tactile_paving": "yes", "tram": "yes"}}, {"type": "node", "id": 2351978944, "lat": 51.9233925, "lon": 4.4782776, "tags": {"name": "Stadhuis", "public_transport": "stop_position", "railway": "tram_stop", "tram": "yes"}}, {"type": "node", "id": 2351978945, "lat": 51.9237071, "lon": 4.4781726, "tags": {"name": "Stadhuis", "public_transport": "stop_position", "railway": "tram_stop", "tram": "yes"}}, {"type": "node", "id": 2351978947, "lat": 51.9240245, "lon": 4.4755239, "tags": {"name": "Weena", "network": "Rail Rotterdam", "network:wikidata": "Q108718112", "operator": "RET", "operator:wikidata": "Q839557", "public_transport": "stop_position", "railway": "tram_stop", "ref": "B", "tactile_paving": "yes", "tram": "yes", "wheelchair": "yes"}}, {"type": "node", "id": 2351978948, "lat": 51.924194, "lon": 4.4767684, "tags": {"name": "Weena", "network": "Rail Rotterdam", "network:wikidata": "Q108718112", "operator": "RET", "operator:wikidata": "Q839557", "public_transport": "stop_position", "railway": "tram_stop", "ref": "D", "tactile_paving": "yes", "tram": "yes", "wheelchair": "yes"}}, {"type": "node", "id": 2351978951, "lat": 51.9242496, "lon": 4.4767666, "tags": {"name": "Weena", "network": "Rail Rotterdam", "network:wikidata": "Q108718112", "public_transport": "stop_position", "railway": "tram_stop", "ref": "C", "tactile_paving": "yes", "tram": "yes", "wheelchair": "yes"}}, {"type": "node", "id": 2388757587, "lat": 51.91841, "lon": 4.4806799, "tags": {"name": "Beurs", "public_transport": "stop_position", "railway": "tram_stop", "tram": "yes", "wheelchair": "yes"}}, {"type": "node", "id": 2388757588, "lat": 51.9188457, "lon": 4.4804392, "tags": {"name": "Beurs", "public_transport": "stop_position", "railway": "tram_stop", "tram": "yes"}}, {"type": "node", "id": 2388757589, "lat": 51.9198732, "lon": 4.4891073, "tags": {"name": "Blaak", "public_transport": "stop_position", "railway": "tram_stop", "tram": "yes"}}, {"type": "node", "id": 2388757590, "lat": 51.9198924, "lon": 4.4890679, "tags": {"name": "Blaak", "public_transport": "stop_position", "railway": "tram_stop", "tram": "yes"}}, {"type": "node", "id": 2388757591, "lat": 51.9215953, "lon": 4.4941311, "tags": {"name": "Burg. Van Walsumweg", "public_transport": "stop_position", "railway": "tram_stop", "tram": "yes", "wheelchair": "yes"}}, {"type": "node", "id": 2388757592, "lat": 51.9216669, "lon": 4.4944213, "tags": {"name": "Burg. Van Walsumweg", "public_transport": "stop_position", "railway": "tram_stop", "tram": "yes", "wheelchair": "yes", "wikidata": "Q100874158"}}, {"type": "node", "id": 2388757593, "lat": 51.9186176, "lon": 4.4840022, "tags": {"name": "Keizerstraat", "public_transport": "stop_position", "railway": "tram_stop", "tram": "yes", "wheelchair": "yes", "wikidata": "Q100873866"}}, {"type": "node", "id": 2388757594, "lat": 51.9185832, "lon": 4.483661, "tags": {"name": "Keizerstraat", "public_transport": "stop_position", "railway": "tram_stop", "tram": "yes"}}, {"type": "node", "id": 2388757598, "lat": 51.9249077, "lon": 4.4856797, "tags": {"name": "Meent", "public_transport": "stop_position", "railway": "tram_stop", "tram": "yes"}}, {"type": "node", "id": 2388757599, "lat": 51.9249964, "lon": 4.4853142, "tags": {"name": "Meent", "public_transport": "stop_position", "railway": "tram_stop", "tram": "yes"}}, {"type": "node", "id": 2388757864, "lat": 51.9230521, "lon": 4.4988293, "tags": {"name": "Oostplein", "network": "Rail Rotterdam", "network:wikidata": "Q108718112", "operator": "RET", "operator:wikidata": "Q839557", "public_transport": "stop_position", "railway": "tram_stop", "tactile_paving": "yes", "tram": "yes", "wheelchair": "yes"}}, {"type": "node", "id": 2388757867, "lat": 51.9231455, "lon": 4.4985018, "tags": {"name": "Oostplein", "network": "Rail Rotterdam", "network:wikidata": "Q108718112", "operator": "RET", "operator:wikidata": "Q839557", "public_transport": "stop_position", "railway": "tram_stop", "tactile_paving": "yes", "tram": "yes", "wheelchair": "yes"}}, {"type": "node", "id": 2388757909, "lat": 51.9234591, "lon": 4.4976118, "tags": {"name": "Oostplein", "network": "Rail Rotterdam", "network:wikidata": "Q108718112", "operator": "RET", "operator:wikidata": "Q839557", "public_transport": "stop_position", "railway": "tram_stop", "tactile_paving": "no", "tram": "yes"}}, {"type": "node", "id": 2388775750, "lat": 51.9201543, "lon": 4.4719723, "tags": {"name": "Kruisplein", "public_transport": "stop_position", "railway": "tram_stop", "ref": "C", "tram": "yes"}}, {"type": "node", "id": 2388775751, "lat": 51.9207038, "lon": 4.4719079, "tags": {"name": "Kruisplein", "public_transport": "stop_position", "railway": "tram_stop", "ref": "D", "tram": "yes"}}, {"type": "node", "id": 2388775820, "lat": 51.9195507, "lon": 4.4761117, "tags": {"name": "Lijnbaan", "public_transport": "stop_position", "railway": "tram_stop", "tram": "yes"}}, {"type": "node", "id": 2388775853, "lat": 51.9206966, "lon": 4.4702941, "tags": {"name": "Kruisplein", "public_transport": "stop_position", "railway": "tram_stop", "ref": "B", "tram": "yes"}}, {"type": "node", "id": 2388775854, "lat": 51.9208385, "lon": 4.4707009, "tags": {"name": "Kruisplein", "public_transport": "stop_position", "railway": "tram_stop", "ref": "A", "tram": "yes"}}, {"type": "node", "id": 2724053029, "lat": 51.9272403, "lon": 4.4779038, "tags": {"name": "Heer Bokelweg", "public_transport": "stop_position", "railway": "tram_stop", "tram": "yes"}}, {"type": "node", "id": 2724053036, "lat": 51.9273224, "lon": 4.4782665, "tags": {"name": "Heer Bokelweg", "public_transport": "stop_position", "railway": "tram_stop", "tram": "yes"}}, {"type": "node", "id": 2724270068, "lat": 51.9276765, "lon": 4.4747224, "tags": {"name": "Schiekade", "public_transport": "stop_position", "railway": "tram_stop", "tram": "yes"}}, {"type": "node", "id": 2724270069, "lat": 51.9282375, "lon": 4.4739028, "tags": {"name": "Schiekade", "public_transport": "stop_position", "railway": "tram_stop", "tram": "yes"}}, {"type": "node", "id": 2725712319, "lat": 51.9304838, "lon": 4.4703473, "tags": {"name": "Walenburgerweg", "public_transport": "stop_position", "railway": "tram_stop", "tram": "yes"}}, {"type": "node", "id": 2725712320, "lat": 51.9307179, "lon": 4.4700456, "tags": {"name": "Walenburgerweg", "public_transport": "stop_position", "railway": "tram_stop", "tram": "yes"}}, {"type": "node", "id": 2725735835, "lat": 51.9351649, "lon": 4.4757477, "tags": {"name": "Van den Hoonaardstraat", "public_transport": "stop_position", "railway": "tram_stop", "tram": "yes"}}, {"type": "node", "id": 2725777455, "lat": 51.9393118, "lon": 4.4794106, "tags": {"name": "Soetendaalseweg", "public_transport": "stop_position", "railway": "tram_stop", "tram": "yes"}}, {"type": "node", "id": 2729496654, "lat": 51.9340161, "lon": 4.486196, "tags": {"name": "Zwaanshals", "public_transport": "stop_position", "railway": "tram_stop", "tram": "yes"}}, {"type": "node", "id": 2729496734, "lat": 51.9339884, "lon": 4.4865425, "tags": {"name": "Zwaanshals", "public_transport": "stop_position", "railway": "tram_stop", "tram": "yes"}}, {"type": "node", "id": 2736033301, "lat": 51.932784, "lon": 4.487759, "tags": {"name": "Zaagmolenbrug", "public_transport": "stop_position", "railway": "tram_stop", "tram": "yes"}}, {"type": "node", "id": 2736170403, "lat": 51.9292787, "lon": 4.4864446, "tags": {"name": "Noorderbrug", "public_transport": "stop_position", "railway": "tram_stop", "tram": "yes"}}, {"type": "node", "id": 2736170416, "lat": 51.9295998, "lon": 4.4865293, "tags": {"name": "Noorderbrug", "public_transport": "stop_position", "railway": "tram_stop", "tram": "yes"}}, {"type": "node", "id": 2736346273, "lat": 51.9395804, "lon": 4.4793794, "tags": {"name": "Soetendaalseweg", "public_transport": "stop_position", "railway": "tram_stop", "tram": "yes"}}, {"type": "node", "id": 2736779617, "lat": 51.9428772, "lon": 4.4814675, "tags": {"name": "Station Noord", "public_transport": "stop_position", "railway": "tram_stop", "tram": "yes", "zone": "5300;5310"}}, {"type": "node", "id": 2736779618, "lat": 51.9448988, "lon": 4.4823307, "tags": {"name": "Kootsekade", "public_transport": "stop_position", "railway": "tram_stop", "tram": "yes"}}, {"type": "node", "id": 2736779635, "lat": 51.9450781, "lon": 4.4829258, "tags": {"name": "Kootsekade", "public_transport": "stop_position", "railway": "tram_stop", "tram": "yes"}}, {"type": "node", "id": 2736779637, "lat": 51.9451558, "lon": 4.4830257, "tags": {"name": "Kootsekade", "public_transport": "stop_position", "railway": "tram_stop", "tram": "yes"}}, {"type": "node", "id": 2736847722, "lat": 51.9476553, "lon": 4.485361, "tags": {"name": "Lommerrijk", "public_transport": "stop_position", "railway": "tram_stop", "tram": "yes"}}, {"type": "node", "id": 2736847742, "lat": 51.947666, "lon": 4.4854265, "tags": {"name": "Lommerrijk", "public_transport": "stop_position", "railway": "tram_stop", "tram": "yes"}}, {"type": "node", "id": 2736939570, "lat": 51.9450845, "lon": 4.4809318, "tags": {"name": "Kootsekade", "public_transport": "stop_position", "railway": "tram_stop", "tram": "yes"}}, {"type": "node", "id": 2737697470, "lat": 51.9453404, "lon": 4.4746234, "tags": {"name": "Bergpolderplein", "public_transport": "stop_position", "railway": "tram_stop", "tram": "yes"}}, {"type": "node", "id": 2740689676, "lat": 51.9512239, "lon": 4.4892192, "tags": {"name": "Bergse Plaslaan", "public_transport": "stop_position", "railway": "tram_stop", "tram": "yes"}}, {"type": "node", "id": 2742483565, "lat": 51.9537712, "lon": 4.4922065, "tags": {"name": "C.N.A. Looslaan", "public_transport": "stop_position", "railway": "tram_stop", "tram": "yes"}}, {"type": "node", "id": 2742483691, "lat": 51.9537103, "lon": 4.4920743, "tags": {"name": "C.N.A. Looslaan", "public_transport": "stop_position", "railway": "tram_stop", "tram": "yes"}}, {"type": "node", "id": 2742483708, "lat": 51.9572679, "lon": 4.4944174, "tags": {"name": "Bergse Dorpsstraat", "public_transport": "stop_position", "railway": "tram_stop", "tram": "yes"}}, {"type": "node", "id": 2742483765, "lat": 51.9586679, "lon": 4.4961983, "tags": {"name": "Liduinaplein", "public_transport": "stop_position", "railway": "tram_stop", "tram": "yes"}}, {"type": "node", "id": 2742602341, "lat": 51.958591, "lon": 4.4968624, "tags": {"name": "Liduinaplein", "public_transport": "stop_position", "railway": "tram_stop", "tram": "yes"}}, {"type": "node", "id": 2742602350, "lat": 51.9580433, "lon": 4.5009003, "tags": {"name": "De Montignyplein", "public_transport": "stop_position", "railway": "tram_stop", "tram": "yes"}}, {"type": "node", "id": 2742602404, "lat": 51.9595031, "lon": 4.5034067, "tags": {"name": "Burgemeester Van Kempensingel", "official_name": "Burg. Van Kempensingel", "public_transport": "stop_position", "railway": "tram_stop", "tram": "yes"}}, {"type": "node", "id": 2742681476, "lat": 51.9594454, "lon": 4.5033109, "tags": {"name": "Burgemeester Van Kempensingel", "official_name": "Burg. Van Kempensingel", "public_transport": "stop_position", "railway": "tram_stop", "tram": "yes"}}, {"type": "node", "id": 2742809617, "lat": 51.9343416, "lon": 4.4648382, "tags": {"name": "Schieweg", "public_transport": "stop_position", "railway": "tram_stop", "tactile_paving": "no", "tram": "yes", "wheelchair": "yes"}}, {"type": "node", "id": 2742809803, "lat": 51.9423573, "lon": 4.4603429, "tags": {"name": "Franciscus Gasthuis", "public_transport": "stop_position", "railway": "tram_stop", "tram": "yes"}}, {"type": "node", "id": 2742809825, "lat": 51.9426233, "lon": 4.4603481, "tags": {"name": "Franciscus Gasthuis", "public_transport": "stop_position", "railway": "tram_stop", "tram": "yes"}}, {"type": "node", "id": 2742809899, "lat": 51.9484409, "lon": 4.4652521, "tags": {"name": "Melanchthonweg", "public_transport": "stop_position", "railway": "tram_stop", "tram": "yes"}}, {"type": "node", "id": 2742809904, "lat": 51.9485107, "lon": 4.4659407, "tags": {"name": "Melanchthonweg", "public_transport": "stop_position", "railway": "tram_stop", "tram": "yes"}}, {"type": "node", "id": 2742809994, "lat": 51.9523593, "lon": 4.4693724, "tags": {"name": "Teldersweg", "public_transport": "stop_position", "railway": "tram_stop", "tram": "yes"}}, {"type": "node", "id": 2742810010, "lat": 51.955683, "lon": 4.4674549, "tags": {"name": "Wilgenplaslaan", "public_transport": "stop_position", "railway": "tram_stop", "tram": "yes", "wheelchair": "yes"}}, {"type": "node", "id": 2742810051, "lat": 51.9563206, "lon": 4.4719658, "tags": {"name": "Wilgenlei", "public_transport": "stop_position", "railway": "tram_stop", "tram": "yes"}}, {"type": "node", "id": 2742810070, "lat": 51.9592105, "lon": 4.4757231, "tags": {"name": "Meidoornweide", "public_transport": "stop_position", "railway": "tram_stop", "tram": "yes"}}, {"type": "node", "id": 2754658225, "lat": 51.9261621, "lon": 4.4548835, "tags": {"name": "Diergaarde Blijdorp", "public_transport": "stop_position", "railway": "tram_stop", "tram": "yes"}}, {"type": "node", "id": 2754781602, "lat": 51.9258579, "lon": 4.4677072, "tags": {"name": "Rotterdam Centraal Blijdorpzijde", "public_transport": "stop_position", "railway": "tram_stop", "tram": "yes"}}, {"type": "node", "id": 2756722276, "lat": 51.925886, "lon": 4.4680779, "tags": {"name": "Rotterdam Centraal Blijdorpzijde", "public_transport": "stop_position", "railway": "tram_stop", "tram": "yes"}}, {"type": "node", "id": 2756744231, "lat": 51.9185819, "lon": 4.4605555, "tags": {"name": "1e Middellandstraat", "public_transport": "stop_position", "railway": "tram_stop", "tram": "yes"}}, {"type": "node", "id": 2758915211, "lat": 51.9194684, "lon": 4.4652103, "tags": {"name": "Tiendplein", "public_transport": "stop_position", "railway": "tram_stop", "tram": "yes"}}, {"type": "node", "id": 2761817956, "lat": 51.9280307, "lon": 4.496355, "tags": {"name": "Boezemweg", "public_transport": "stop_position", "railway": "tram_stop", "tram": "yes"}}, {"type": "node", "id": 2767653682, "lat": 51.9327534, "lon": 4.4939763, "tags": {"name": "Crooswijksestraat", "public_transport": "stop_position", "railway": "tram_stop", "tram": "yes"}}, {"type": "node", "id": 2767653685, "lat": 51.9328424, "lon": 4.4935131, "tags": {"name": "Crooswijksestraat", "public_transport": "stop_position", "railway": "tram_stop", "tram": "yes"}}, {"type": "node", "id": 2768049110, "lat": 51.9321972, "lon": 4.4975546, "tags": {"name": "Boezemstraat", "public_transport": "stop_position", "railway": "tram_stop", "tram": "yes"}}, {"type": "node", "id": 2768049123, "lat": 51.9299858, "lon": 4.4969328, "tags": {"name": "Boezemsingel", "public_transport": "stop_position", "railway": "tram_stop", "tram": "yes"}}, {"type": "node", "id": 2771923517, "lat": 51.9283339, "lon": 4.4964287, "tags": {"name": "Boezemweg", "public_transport": "stop_position", "railway": "tram_stop", "tram": "yes"}}, {"type": "node", "id": 3460108483, "lat": 51.9184031, "lon": 4.4596304, "tags": {"name": "1e Middellandstraat", "public_transport": "stop_position", "railway": "tram_stop", "tram": "yes"}}, {"type": "node", "id": 3460149783, "lat": 51.9165894, "lon": 4.4467337, "tags": {"name": "Mathenesserplein", "public_transport": "stop_position", "railway": "tram_stop", "tram": "yes"}}, {"type": "node", "id": 3460149784, "lat": 51.9172111, "lon": 4.4542655, "tags": {"name": "Vierambachtsstraat", "public_transport": "stop_position", "railway": "tram_stop", "tram": "yes"}}, {"type": "node", "id": 3460151912, "lat": 51.9165307, "lon": 4.4476572, "tags": {"name": "Mathenesserplein", "public_transport": "stop_position", "railway": "tram_stop", "tram": "yes"}}, {"type": "node", "id": 3465115615, "lat": 51.9165001, "lon": 4.4423808, "tags": {"name": "Mathenesserbrug", "public_transport": "stop_position", "railway": "tram_stop", "tram": "yes", "wikidata": "Q100870570"}}, {"type": "node", "id": 3465183366, "lat": 51.916633, "lon": 4.4412215, "tags": {"name": "Mathenesserbrug", "public_transport": "stop_position", "railway": "tram_stop", "tram": "yes"}}, {"type": "node", "id": 3994262220, "lat": 51.89446, "lon": 4.484166, "tags": {"name": "Brielselaan", "public_transport": "stop_position", "railway": "tram_stop", "tram": "yes"}}, {"type": "node", "id": 3994262221, "lat": 51.8912513, "lon": 4.4729471, "tags": {"name": "Dorpsweg", "public_transport": "stop_position", "railway": "tram_stop", "tram": "yes", "zone": "5314"}}, {"type": "node", "id": 3994262222, "lat": 51.8909082, "lon": 4.4694739, "tags": {"name": "Frans Bekkerstraat", "public_transport": "stop_position", "railway": "tram_stop", "tram": "yes"}}, {"type": "node", "id": 3994262223, "lat": 51.8956012, "lon": 4.5054537, "tags": {"name": "Hillevliet", "public_transport": "stop_position", "railway": "tram_stop", "tram": "yes"}}, {"type": "node", "id": 3994262224, "lat": 51.8829897, "lon": 4.4648175, "tags": {"name": "Kromme Zandweg", "public_transport": "stop_position", "railway": "tram_stop", "tram": "yes"}}, {"type": "node", "id": 3994262225, "lat": 51.8914086, "lon": 4.4785398, "tags": {"name": "Pleinweg", "public_transport": "stop_position", "railway": "tram_stop", "tram": "yes"}}, {"type": "node", "id": 3994262226, "lat": 51.8974053, "lon": 4.5023089, "tags": {"name": "Putsebocht", "public_transport": "stop_position", "railway": "tram_stop", "tram": "yes"}}, {"type": "node", "id": 3994262229, "lat": 51.8875995, "lon": 4.4658565, "tags": {"name": "Van Blommesteynweg", "public_transport": "stop_position", "railway": "tram_stop", "tram": "yes"}}, {"type": "node", "id": 3999525625, "lat": 51.9060227, "lon": 4.4984318, "tags": {"name": "Lodewijk Pincoffsweg", "public_transport": "stop_position", "railway": "tram_stop", "tram": "yes"}}, {"type": "node", "id": 3999525630, "lat": 51.9039452, "lon": 4.5033152, "tags": {"name": "Vuurplaat", "public_transport": "stop_position", "railway": "tram_stop", "tram": "yes"}}, {"type": "node", "id": 4001426521, "lat": 51.9166246, "lon": 4.4733065, "tags": {"name": "Eendrachtsplein", "public_transport": "stop_position", "railway": "tram_stop", "tram": "yes"}}, {"type": "node", "id": 4001426522, "lat": 51.9126848, "lon": 4.4820436, "tags": {"name": "Leuvehaven", "public_transport": "stop_position", "railway": "tram_stop", "tram": "yes"}}, {"type": "node", "id": 4001426523, "lat": 51.9148184, "lon": 4.4751642, "tags": {"name": "Museumpark", "public_transport": "stop_position", "railway": "tram_stop", "tram": "yes"}}, {"type": "node", "id": 4001426524, "lat": 51.9117002, "lon": 4.478114, "tags": {"name": "Vasteland", "public_transport": "stop_position", "railway": "tram_stop", "tram": "yes", "wheelchair": "limited", "wikidata": "Q100717786"}}, {"type": "node", "id": 4001426525, "lat": 51.907978, "lon": 4.4916274, "tags": {"name": "Wilhelminaplein", "public_transport": "stop_position", "railway": "tram_stop", "tram": "yes"}}, {"type": "node", "id": 4002902577, "lat": 51.9136941, "lon": 4.4632078, "tags": {"name": "'s-Gravendijkwal", "public_transport": "stop_position", "railway": "tram_stop", "tram": "yes", "wheelchair": "yes"}}, {"type": "node", "id": 4002902578, "lat": 51.9159972, "lon": 4.4683721, "tags": {"name": "Bloemkwekersstraat", "public_transport": "stop_position", "railway": "tram_stop", "tram": "yes"}}, {"type": "node", "id": 4002902579, "lat": 51.9130968, "lon": 4.4596738, "tags": {"name": "Claes de Vrieselaan", "public_transport": "stop_position", "railway": "tram_stop", "route_ref": "4", "tram": "yes", "wheelchair": "yes"}}, {"type": "node", "id": 4002902580, "lat": 51.9169257, "lon": 4.4724545, "tags": {"name": "Eendrachtsplein", "public_transport": "stop_position", "railway": "tram_stop", "tram": "yes"}}, {"type": "node", "id": 4002902581, "lat": 51.912459, "lon": 4.4562105, "tags": {"name": "Heemraadsplein", "public_transport": "stop_position", "railway": "tram_stop", "route_ref": "4", "tram": "yes", "wheelchair": "yes"}}, {"type": "node", "id": 4002902583, "lat": 51.915027, "lon": 4.4659853, "tags": {"name": "Mathenesserlaan", "public_transport": "stop_position", "railway": "tram_stop", "tram": "yes"}}, {"type": "node", "id": 4002902586, "lat": 51.9105216, "lon": 4.4428095, "tags": {"name": "Van Duylstraat", "public_transport": "stop_position", "railway": "tram_stop", "route_ref": "4;8", "tram": "yes"}}, {"type": "node", "id": 4002905698, "lat": 51.9095994, "lon": 4.4459474, "tags": {"name": "Delfshaven", "public_transport": "stop_position", "railway": "tram_stop", "route_ref": "8", "tram": "yes"}}, {"type": "node", "id": 4002905999, "lat": 51.9144558, "lon": 4.4657077, "tags": {"name": "Mathenesserlaan", "public_transport": "stop_position", "railway": "tram_stop", "tram": "yes"}}, {"type": "node", "id": 4003285271, "lat": 51.9083649, "lon": 4.466956, "tags": {"name": "Euromast", "public_transport": "stop_position", "railway": "tram_stop", "tram": "yes"}}, {"type": "node", "id": 4003285272, "lat": 51.9096329, "lon": 4.4713751, "tags": {"name": "Kievitslaan", "public_transport": "stop_position", "railway": "tram_stop", "tram": "yes", "wheelchair": "limited"}}, {"type": "node", "id": 4003285273, "lat": 51.9036795, "lon": 4.4533713, "tags": {"name": "Oostkousdijk", "public_transport": "stop_position", "railway": "tram_stop", "tram": "yes"}}, {"type": "node", "id": 4003285274, "lat": 51.9052584, "lon": 4.4597251, "tags": {"name": "Pieter de Hoochweg", "public_transport": "stop_position", "railway": "tram_stop", "tram": "yes"}}, {"type": "node", "id": 4003285275, "lat": 51.9044447, "lon": 4.4462537, "tags": {"name": "Schiemond", "public_transport": "stop_position", "railway": "tram_stop", "tram": "yes"}}, {"type": "node", "id": 4003285276, "lat": 51.9068052, "lon": 4.4456614, "tags": {"name": "Spanjaardstraat", "public_transport": "stop_position", "railway": "tram_stop", "tram": "yes"}}, {"type": "node", "id": 4003285277, "lat": 51.9070347, "lon": 4.4456431, "tags": {"name": "Spanjaardstraat", "public_transport": "stop_position", "railway": "tram_stop", "tram": "yes"}}, {"type": "node", "id": 4003285279, "lat": 51.9090988, "lon": 4.4822091, "tags": {"name": "Willemskade", "network": "Rail Rotterdam", "network:wikidata": "Q108718112", "operator": "RET", "public_transport": "stop_position", "railway": "tram_stop", "tram": "yes"}}, {"type": "node", "id": 4003694468, "lat": 51.921679, "lon": 4.5055146, "tags": {"name": "Willem Ruyslaan", "public_transport": "stop_position", "railway": "tram_stop", "tram": "yes"}}, {"type": "node", "id": 4005779207, "lat": 51.8834008, "lon": 4.5050507, "tags": {"name": "Groene Hilledijk", "public_transport": "stop_position", "railway": "tram_stop", "tram": "yes"}}, {"type": "node", "id": 4005779208, "lat": 51.8740169, "lon": 4.4956744, "tags": {"name": "Langenhorst", "public_transport": "stop_position", "railway": "tram_stop", "tram": "yes"}}, {"type": "node", "id": 4005779209, "lat": 51.8545594, "lon": 4.5016002, "tags": {"name": "Meerwede", "public_transport": "stop_position", "railway": "tram_stop", "tactile_paving": "yes", "tram": "yes", "wheelchair": "yes"}}, {"type": "node", "id": 4005779211, "lat": 51.8786963, "lon": 4.5082691, "tags": {"name": "Paasweide", "public_transport": "stop_position", "railway": "tram_stop", "tram": "yes"}}, {"type": "node", "id": 4005779212, "lat": 51.8605108, "lon": 4.5026497, "tags": {"name": "Vrijenburg", "public_transport": "stop_position", "railway": "tram_stop", "tactile_paving": "yes", "tram": "yes", "wheelchair": "yes"}}, {"type": "node", "id": 4204114599, "lat": 51.9135832, "lon": 4.4537411, "tags": {"name": "Rotterdam, Heemraadsplein", "network": "Rail Rotterdam", "operator": "RET", "public_transport": "stop_position", "railway": "tram_stop", "tram": "yes"}}, {"type": "node", "id": 4204114890, "lat": 51.9142061, "lon": 4.4496613, "tags": {"name": "Hooidrift", "network": "Rail Rotterdam", "operator": "RET", "public_transport": "stop_position", "railway": "tram_stop", "tram": "yes"}}, {"type": "node", "id": 4204114891, "lat": 51.9143105, "lon": 4.4495496, "tags": {"name": "Hooidrift", "network": "Rail Rotterdam", "operator": "RET", "public_transport": "stop_position", "railway": "tram_stop", "tram": "yes"}}, {"type": "node", "id": 4659272145, "lat": 51.9325121, "lon": 4.4730176, "tags": {"name": "Eudokiaplein", "public_transport": "stop_position", "railway": "tram_stop", "tram": "yes"}}, {"type": "node", "id": 4889857581, "lat": 51.891343, "lon": 4.4782156, "tags": {"name": "Pleinweg", "public_transport": "platform", "railway": "tram_stop", "shelter": "yes"}}, {"type": "node", "id": 5995593948, "lat": 51.9361444, "lon": 4.479561, "tags": {"name": "Rotterdam, Benthuizerstraat", "public_transport": "stop_position", "railway": "tram_stop", "tram": "yes"}}, {"type": "node", "id": 5995593951, "lat": 51.9358682, "lon": 4.4793861, "tags": {"name": "Rotterdam, Benthuizerstraat", "public_transport": "stop_position", "railway": "tram_stop", "tram": "yes"}}, {"type": "node", "id": 6137626904, "lat": 51.9233699, "lon": 4.4725066, "tags": {"name": "Rotterdam Centraal", "network": "Rail Rotterdam", "network:wikidata": "Q108718112", "operator": "RET", "operator:wikidata": "Q839557", "public_transport": "stop_position", "railway": "tram_stop", "ref": "F", "tactile_paving": "yes", "tram": "yes"}}, {"type": "node", "id": 6137626907, "lat": 51.9232484, "lon": 4.4718024, "tags": {"name": "Rotterdam Centraal", "operator": "RET", "public_transport": "stop_position", "railway": "tram_stop", "ref": "E", "tactile_paving": "yes", "tram": "yes"}}, {"type": "node", "id": 6292900354, "lat": 51.9173096, "lon": 4.4727691, "tags": {"name": "Eendrachtsplein", "network": "Rail Rotterdam", "network:wikidata": "Q108718112", "operator": "RET", "public_transport": "stop_position", "railway": "tram_stop", "tram": "yes"}}, {"type": "node", "id": 6318007949, "lat": 51.9142682, "lon": 4.4587959, "tags": {"name": "Claes de Vrieselaan", "network": "Rail Rotterdam", "operator": "RET", "public_transport": "stop_position", "railway": "tram_stop", "tram": "yes"}}, {"type": "node", "id": 6318425778, "lat": 51.9148466, "lon": 4.4652313, "tags": {"name": "Nieuwe Binnenweg", "network": "Rail Rotterdam", "network:wikidata": "Q108718112", "operator": "RET", "public_transport": "stop_position", "railway": "tram_stop", "tram": "yes"}}, {"type": "node", "id": 6318425779, "lat": 51.914907, "lon": 4.4650832, "tags": {"name": "Nieuwe Binnenweg", "network": "Rail Rotterdam", "network:wikidata": "Q108718112", "operator": "RET", "public_transport": "stop_position", "railway": "tram_stop", "tram": "yes"}}, {"type": "node", "id": 6337907117, "lat": 51.923352, "lon": 4.4963377, "tags": {"name": "Oostplein", "network": "Rail Rotterdam", "network:wikidata": "Q108718112", "operator": "RET", "operator:wikidata": "Q839557", "public_transport": "stop_position", "railway": "tram_stop", "tactile_paving": "no", "tram": "yes"}}, {"type": "node", "id": 6337907118, "lat": 51.9233202, "lon": 4.4964109, "tags": {"name": "Oostplein", "network": "Rail Rotterdam", "network:wikidata": "Q108718112", "operator": "RET", "operator:wikidata": "Q839557", "public_transport": "stop_position", "railway": "tram_stop", "tactile_paving": "no", "tram": "yes"}}, {"type": "node", "id": 6347417736, "lat": 51.9255374, "lon": 4.4550832, "tags": {"name": "Diergaarde Blijdorp", "public_transport": "stop_position", "railway": "tram_stop", "tram": "yes"}}, {"type": "node", "id": 6384034951, "lat": 51.9296647, "lon": 4.4968452, "tags": {"name": "Boezemsingel", "public_transport": "stop_position", "railway": "tram_stop", "tram": "yes"}}, {"type": "node", "id": 6386664083, "lat": 51.9097321, "lon": 4.4783087, "tags": {"name": "Westplein", "public_transport": "stop_position", "railway": "tram_stop", "tactile_paving": "yes", "tram": "yes", "wheelchair": "yes"}}, {"type": "node", "id": 6390921249, "lat": 51.9113626, "lon": 4.4770164, "tags": {"name": "Vasteland", "public_transport": "stop_position", "railway": "tram_stop", "tram": "yes"}}, {"type": "node", "id": 6390921252, "lat": 51.9112771, "lon": 4.4766262, "tags": {"name": "Vasteland", "public_transport": "stop_position", "railway": "tram_stop", "tram": "yes"}}, {"type": "node", "id": 6390921263, "lat": 51.9083626, "lon": 4.4672839, "tags": {"name": "Euromast", "public_transport": "stop_position", "railway": "tram_stop", "tram": "yes"}}, {"type": "node", "id": 6484582515, "lat": 51.9294125, "lon": 4.5020826, "tags": {"name": "Vlietlaan", "public_transport": "stop_position", "railway": "tram_stop", "tram": "yes"}}, {"type": "node", "id": 6484582516, "lat": 51.929645, "lon": 4.5023249, "tags": {"name": "Vlietlaan", "public_transport": "stop_position", "railway": "tram_stop", "tram": "yes"}}, {"type": "node", "id": 6484590218, "lat": 51.9287635, "lon": 4.5064468, "tags": {"name": "Jericholaan", "public_transport": "stop_position", "railway": "tram_stop", "tram": "yes"}}, {"type": "node", "id": 6484591503, "lat": 51.9289657, "lon": 4.5060901, "tags": {"name": "Jericholaan", "public_transport": "stop_position", "railway": "tram_stop", "tram": "yes"}}, {"type": "node", "id": 6485706241, "lat": 51.9576752, "lon": 4.4944422, "tags": {"name": "Bergse Dorpsstraat", "public_transport": "stop_position", "railway": "tram_stop", "tram": "yes"}}, {"type": "node", "id": 6485755132, "lat": 51.960423, "lon": 4.4696989, "tags": {"name": "Peppelweg", "public_transport": "stop_position", "railway": "tram_stop", "tram": "yes"}}, {"type": "node", "id": 6486327414, "lat": 51.9348957, "lon": 4.4753504, "tags": {"name": "Van den Hoonaardstraat", "public_transport": "stop_position", "railway": "tram_stop", "tram": "yes"}}, {"type": "node", "id": 6486371652, "lat": 51.9304235, "lon": 4.4794042, "tags": {"name": "Noordsingel", "public_transport": "stop_position", "railway": "tram_stop", "tram": "yes"}}, {"type": "node", "id": 6486371682, "lat": 51.9328979, "lon": 4.4729959, "tags": {"name": "Eudokiaplein", "public_transport": "stop_position", "railway": "tram_stop", "tram": "yes"}}, {"type": "node", "id": 6491357353, "lat": 51.9096461, "lon": 4.4816528, "tags": {"name": "Westerstraat", "public_transport": "stop_position", "railway": "tram_stop", "tactile_paving": "yes", "tram": "yes", "wheelchair": "yes"}}, {"type": "node", "id": 6491363769, "lat": 51.9098639, "lon": 4.4782685, "tags": {"name": "Westplein", "public_transport": "stop_position", "railway": "tram_stop", "tactile_paving": "yes", "tram": "yes", "wheelchair": "yes"}}, {"type": "node", "id": 11067489061, "lat": 51.9126413, "lon": 4.4553432, "tags": {"name": "Rotterdam, Heemraadsplein", "public_transport": "stop_position", "railway": "tram_stop", "route_ref": "4", "tram": "yes", "wheelchair": "no"}}, {"type": "node", "id": 11323305019, "lat": 51.9449009, "lon": 4.4680621, "tags": {"name": "Kleiweg", "public_transport": "stop_position", "railway": "tram_stop", "tram": "yes"}}, {"type": "node", "id": 11323305020, "lat": 51.9449348, "lon": 4.4680523, "tags": {"name": "Kleiweg", "public_transport": "stop_position", "railway": "tram_stop", "tram": "yes"}}]}