{"version": 0.6, "generator": "Overpass API 0.7.62.4 2390de5a", "osm3s": {"timestamp_osm_base": "2025-01-03T15:27:15Z", "copyright": "The data included in this document is from www.openstreetmap.org. The data is made available under ODbL."}, "elements": [{"type": "node", "id": 46326414, "lat": 52.3580481, "lon": 4.8521827, "tags": {"name": "Surinameplein", "public_transport": "stop_position", "railway": "tram_stop", "tram": "yes", "wikidata": "Q111291725"}}, {"type": "node", "id": 46350382, "lat": 52.3635043, "lon": 4.9193627, "tags": {"name": "Alexanderplein", "public_transport": "stop_position", "railway": "tram_stop", "tram": "yes", "wheelchair": "yes", "wikidata": "Q111376243"}}, {"type": "node", "id": 46369643, "lat": 52.3679611, "lon": 4.9053602, "tags": {"name": "Meester Visserplein", "public_transport": "stop_position", "railway": "tram_stop", "source": "AND", "tram": "yes", "wheelchair": "yes", "wikidata": "Q111397558"}}, {"type": "node", "id": 46432024, "lat": 52.3813125, "lon": 4.8792047, "tags": {"name": "Nassaukade", "public_transport": "stop_position", "railway": "tram_stop", "tram": "yes", "wikidata": "Q111307092"}}, {"type": "node", "id": 46462976, "lat": 52.388084, "lon": 4.8851416, "tags": {"name": "Zoutkeetsgracht", "public_transport": "stop_position", "railway": "tram_stop", "tram": "yes", "wikidata": "Q127977567"}}, {"type": "node", "id": 148726445, "lat": 52.3844185, "lon": 4.8749198, "tags": {"name": "Van Limburg Stirumplein", "public_transport": "stop_position", "railway": "tram_stop", "tram": "yes", "wheelchair": "limited", "wikidata": "Q111307089"}}, {"type": "node", "id": 237938749, "lat": 52.3735332, "lon": 4.8936441, "tags": {"name": "Dam", "public_transport": "stop_position", "railway": "tram_stop", "tram": "yes", "wheelchair": "limited", "wikidata": "Q111305178"}}, {"type": "node", "id": 237962650, "lat": 52.3609314, "lon": 4.9289422, "tags": {"name": "Dapperstraat", "public_transport": "stop_position", "railway": "tram_stop", "ref:IFOPT": "NL:Q:30000010", "tram": "yes", "wheelchair": "yes", "wikidata": "Q111284637"}}, {"type": "node", "id": 237962735, "lat": 52.3531224, "lon": 4.8820871, "tags": {"name": "Roelof Hartplein", "public_transport": "stop_position", "railway": "tram_stop", "tram": "yes", "wheelchair": "limited", "wikidata": "Q111307975"}}, {"type": "node", "id": 237962753, "lat": 52.3566951, "lon": 4.8796377, "tags": {"name": "Concertgebouw", "public_transport": "stop_position", "railway": "tram_stop", "tram": "yes", "wheelchair": "yes", "wikidata": "Q111307976"}}, {"type": "node", "id": 240311313, "lat": 52.3785896, "lon": 4.8791849, "tags": {"name": "Marnixplein", "name:de": "Marnixplatz", "public_transport": "stop_position", "railway": "tram_stop", "tram": "yes", "wikidata": "Q111364866"}}, {"type": "node", "id": 240316865, "lat": 52.3789376, "lon": 4.8794559, "tags": {"name": "Marnixplein", "name:de": "Marnixplatz", "public_transport": "stop_position", "railway": "tram_stop", "tram": "yes", "wikidata": "Q111364866"}}, {"type": "node", "id": 240316872, "lat": 52.3784783, "lon": 4.875268, "tags": {"name": "Frederik Hendrikplantsoen", "public_transport": "stop_position", "railway": "tram_stop", "tram": "yes", "wheelchair": "limited", "wikidata": "Q111307093"}}, {"type": "node", "id": 240316873, "lat": 52.3750097, "lon": 4.8729548, "tags": {"name": "Hugo de Grootplein", "public_transport": "stop_position", "railway": "tram_stop", "tram": "yes", "wikidata": "Q111307094"}}, {"type": "node", "id": 240316874, "lat": 52.3742987, "lon": 4.872531, "tags": {"name": "Hugo de Grootplein", "public_transport": "stop_position", "railway": "tram_stop", "tram": "yes", "wheelchair": "yes", "wikidata": "Q111307094"}}, {"type": "node", "id": 241392441, "lat": 52.3659327, "lon": 4.9324425, "tags": {"name": "Zeeburgerdijk", "public_transport": "stop_position", "railway": "tram_stop", "tram": "yes", "wikidata": "Q111396598"}}, {"type": "node", "id": 241392462, "lat": 52.3659058, "lon": 4.9272032, "tags": {"name": "Pontanusstraat", "public_transport": "stop_position", "railway": "tram_stop", "tram": "yes", "wikidata": "Q111396595"}}, {"type": "node", "id": 241772055, "lat": 52.3669934, "lon": 4.9019846, "tags": {"name": "Waterlooplein", "name:de": "Waterlooplatz", "public_transport": "stop_position", "railway": "tram_stop", "tram": "yes", "wikidata": "Q111397560"}}, {"type": "node", "id": 241775832, "lat": 52.3609734, "lon": 4.887104, "tags": {"alt_name": "Spiegelgracht", "name": "Rijksmuseum", "public_transport": "stop_position", "railway": "tram_stop", "tram": "yes", "wheelchair": "yes", "wikidata": "Q111291263"}}, {"type": "node", "id": 275930365, "lat": 52.3730125, "lon": 4.9348277, "tags": {"name": "Rietlandpark", "public_transport": "stop_position", "railway": "tram_stop", "ref:IFOPT": "NL:Q:30008261", "tram": "yes", "wheelchair": "yes", "wikidata": "Q111378177"}}, {"type": "node", "id": 283601358, "lat": 52.3515256, "lon": 4.8501741, "tags": {"name": "Hoofddorpplein", "public_transport": "stop_position", "railway": "tram_stop", "tram": "yes", "wikidata": "Q111301513"}}, {"type": "node", "id": 283603496, "lat": 52.3511681, "lon": 4.8495922, "tags": {"name": "Hoofddorpplein", "public_transport": "stop_position", "railway": "tram_stop", "tram": "yes", "wikidata": "Q111301513"}}, {"type": "node", "id": 285869162, "lat": 52.3599031, "lon": 4.8909623, "tags": {"name": "Vijzelgracht", "old_name": "Weteringcircuit", "public_transport": "stop_position", "railway": "tram_stop", "tram": "yes", "wheelchair": "yes", "wikidata": "Q111286557"}}, {"type": "node", "id": 286316889, "lat": 52.3652037, "lon": 4.9520639, "tags": {"name": "Flevopark", "public_transport": "stop_position", "railway": "tram_stop", "tram": "yes", "wikidata": "Q111305420"}}, {"type": "node", "id": 286610403, "lat": 52.3027943, "lon": 4.8716334, "tags": {"name": "Oranjebaan", "public_transport": "stop_position", "railway": "tram_stop", "tram": "yes", "website": "https://9292.nl/amstelveen/tramhalte-oranjebaan", "wikidata": "Q1867682", "wikimedia_commons": "File:Oranjebaan.jpg", "wikipedia": "nl:Oranjebaan (tramhalte)"}}, {"type": "node", "id": 286610407, "lat": 52.2964918, "lon": 4.8678081, "tags": {"name": "Ouderkerkerlaan", "public_transport": "stop_position", "railway": "tram_stop", "tram": "yes", "wheelchair": "yes", "wikidata": "Q2739727", "wikipedia": "nl:Ouderkerkerlaan (tramhalte)"}}, {"type": "node", "id": 287763010, "lat": 52.3514907, "lon": 4.8342872, "tags": {"name": "Heemstedestraat", "public_transport": "stop_position", "railway": "tram_stop", "tram": "yes", "wheelchair": "yes", "wikidata": "Q111295883"}}, {"type": "node", "id": 287765628, "lat": 52.3466865, "lon": 4.8242594, "tags": {"name": "Louwesweg", "public_transport": "stop_position", "railway": "tram_stop", "tram": "yes", "wheelchair": "limited", "wikidata": "Q111295872"}}, {"type": "node", "id": 289344481, "lat": 52.3426151, "lon": 4.8767774, "tags": {"name": "Prinses Irenestraat", "public_transport": "stop_position", "railway": "tram_stop", "ref:IFOPT": "NL:Q:30007186", "tram": "yes", "wikidata": "Q111364716"}}, {"type": "node", "id": 289364883, "lat": 52.3402318, "lon": 4.8921974, "tags": {"name": "Europaplein", "public_transport": "stop_position", "railway": "tram_stop", "tram": "yes", "wikidata": "Q111335784"}}, {"type": "node", "id": 289378508, "lat": 52.3492152, "lon": 4.8575492, "tags": {"name": "Haarlemmermeerstation", "public_transport": "stop_position", "railway": "tram_stop", "tram": "yes"}}, {"type": "node", "id": 289378915, "lat": 52.3560193, "lon": 4.8795995, "tags": {"name": "Concertgebouw", "public_transport": "stop_position", "railway": "tram_stop", "tram": "yes", "wheelchair": "yes", "wikidata": "Q111307976"}}, {"type": "node", "id": 289426088, "lat": 52.3464422, "lon": 4.8156883, "tags": {"name": "Laan van Vlaanderen", "public_transport": "stop_position", "railway": "tram_stop", "ref:IFOPT": "NL:Q:30004276", "tram": "yes", "wheelchair": "yes", "wikidata": "Q111295870"}}, {"type": "node", "id": 289426091, "lat": 52.3463857, "lon": 4.8110474, "tags": {"name": "Centrum Nieuw Sloten", "public_transport": "stop_position", "railway": "tram_stop", "tram": "yes", "wheelchair": "yes", "wikidata": "Q111295869"}}, {"type": "node", "id": 289428760, "lat": 52.3449284, "lon": 4.8036706, "tags": {"name": "Oudenaardeplantsoen", "public_transport": "stop_position", "railway": "tram_stop", "tram": "yes", "wikidata": "Q111292829"}}, {"type": "node", "id": 289430207, "lat": 52.3450454, "lon": 4.8041222, "tags": {"name": "Oudenaardeplantsoen", "public_transport": "stop_position", "railway": "tram_stop", "tram": "yes", "wikidata": "Q111292829"}}, {"type": "node", "id": 289818100, "lat": 52.3772063, "lon": 4.9134308, "tags": {"name": "Muziekgebouw", "public_transport": "stop_position", "railway": "tram_stop", "ref:IFOPT": "NL:Q:30008234", "tram": "yes", "wheelchair": "yes", "wikidata": "Q111458110"}}, {"type": "node", "id": 289980226, "lat": 52.2804726, "lon": 4.8522191, "tags": {"name": "Brink", "public_transport": "stop_position", "railway": "tram_stop", "tram": "yes", "wheelchair": "yes", "wikidata": "Q2240034", "wikipedia": "nl:Brink (tramhalte)"}}, {"type": "node", "id": 289980799, "lat": 52.2831286, "lon": 4.8458857, "tags": {"name": "Poortwachter", "public_transport": "stop_position", "railway": "tram_stop", "tram": "yes", "wikidata": "Q1807246", "wikipedia": "nl:Poortwachter (tramhalte)"}}, {"type": "node", "id": 290080777, "lat": 52.2748113, "lon": 4.8310348, "tags": {"name": "Westwijk", "public_transport": "stop_position", "railway": "tram_stop", "tram": "yes", "wikidata": "Q2044925", "wikipedia": "nl:Westwijk (tramhalte)"}}, {"type": "node", "id": 290930270, "lat": 52.3579358, "lon": 4.8401257, "tags": {"name": "Derkinderenstraat", "public_transport": "stop_position", "railway": "tram_stop", "tram": "yes", "wikidata": "Q111291724"}}, {"type": "node", "id": 290930272, "lat": 52.3578798, "lon": 4.834559, "tags": {"name": "Station Lelylaan", "public_transport": "stop_position", "railway": "tram_stop", "tram": "yes", "wheelchair": "yes", "wikidata": "Q111291723"}}, {"type": "node", "id": 290931857, "lat": 52.3647729, "lon": 4.8531786, "tags": {"name": "Postjesweg", "public_transport": "stop_position", "railway": "tram_stop", "tram": "yes", "wikidata": "Q111375703"}}, {"type": "node", "id": 290955747, "lat": 52.3565093, "lon": 4.8107529, "tags": {"name": "Meer en Vaart", "public_transport": "stop_position", "railway": "tram_stop", "tram": "yes", "wheelchair": "yes", "wikidata": "Q111291721"}}, {"type": "node", "id": 290957004, "lat": 52.3580728, "lon": 4.8509943, "tags": {"name": "Surinameplein", "public_transport": "stop_position", "railway": "tram_stop", "tram": "yes", "wikidata": "Q111291725"}}, {"type": "node", "id": 290963343, "lat": 52.3515685, "lon": 4.8456281, "tags": {"bus": "yes", "name": "Westlandgracht", "public_transport": "stop_position", "railway": "tram_stop", "tram": "yes", "wikidata": "Q111295881"}}, {"type": "node", "id": 291646148, "lat": 52.3560251, "lon": 4.870782, "tags": {"name": "Cornelis Schuytstraat", "public_transport": "stop_position", "railway": "tram_stop", "tram": "yes", "wheelchair": "yes", "wikidata": "Q111301510"}}, {"type": "node", "id": 291660551, "lat": 52.358854, "lon": 4.8812446, "tags": {"name": "Museumplein", "public_transport": "stop_position", "railway": "tram_stop", "tram": "yes", "wheelchair": "yes", "wikidata": "Q111301509"}}, {"type": "node", "id": 293883917, "lat": 52.2833338, "lon": 4.8450525, "tags": {"name": "Poortwachter", "public_transport": "stop_position", "railway": "tram_stop", "tram": "yes", "wikidata": "Q1807246", "wikipedia": "nl:Poortwachter (tramhalte)"}}, {"type": "node", "id": 293884152, "lat": 52.2806292, "lon": 4.8513367, "tags": {"name": "Brink", "public_transport": "stop_position", "railway": "tram_stop", "tram": "yes", "wheelchair": "yes", "wikidata": "Q2240034", "wikipedia": "nl:Brink (tramhalte)"}}, {"type": "node", "id": 293884357, "lat": 52.2808905, "lon": 4.8569707, "tags": {"name": "Meent", "public_transport": "stop_position", "railway": "tram_stop", "tram": "yes", "wikidata": "Q1824137", "wikipedia": "nl:Meent (tramhalte)"}}, {"type": "node", "id": 293886212, "lat": 52.3012694, "lon": 4.8670933, "tags": {"name": "Amstelveen Stadshart", "public_transport": "stop_position", "railway": "tram_stop", "tram": "yes", "wikidata": "Q111345412", "wikimedia_commons": "Category:Amstelveen Stadshart (tramhalte)"}}, {"type": "node", "id": 294091330, "lat": 52.3382075, "lon": 4.8686793, "tags": {"name": "Parnassusweg", "public_transport": "stop_position", "railway": "tram_stop", "survey:date": "2021-08-19", "tram": "yes", "website": "https://9292.nl/en/amsterdam/tramhalte-parnassusweg", "wheelchair": "yes", "wikidata": "Q111358933"}}, {"type": "node", "id": 295540833, "lat": 52.2920559, "lon": 4.8400481, "tags": {"name": "Noorddammerlaan", "public_transport": "stop_position", "railway": "tram_stop", "tram": "yes", "wheelchair": "no"}}, {"type": "node", "id": 295552866, "lat": 52.3153498, "lon": 4.8552783, "tags": {"name": "Amsterdamseweg", "public_transport": "stop_position", "railway": "tram_stop", "tram": "yes"}}, {"type": "node", "id": 296265564, "lat": 52.3694262, "lon": 4.8446631, "tags": {"name": "Admiraal Helfrichstraat", "public_transport": "stop_position", "railway": "tram_stop", "tram": "yes", "wikidata": "Q111396097"}}, {"type": "node", "id": 296265916, "lat": 52.3772607, "lon": 4.8029118, "tags": {"name": "Lambertus Zijlplein", "public_transport": "stop_position", "railway": "tram_stop", "tram": "yes", "wikidata": "Q111383650"}}, {"type": "node", "id": 296266579, "lat": 52.3432024, "lon": 4.9474911, "tags": {"name": "Brinkstraat", "public_transport": "stop_position", "railway": "tram_stop", "tram": "yes", "wikidata": "Q111434569"}}, {"type": "node", "id": 296703876, "lat": 52.3591171, "lon": 4.8032265, "tags": {"name": "Osdorpplein West", "public_transport": "stop_position", "railway": "tram_stop", "tram": "yes", "wikidata": "Q111419287"}}, {"type": "node", "id": 296992497, "lat": 52.3279919, "lon": 4.8565436, "tags": {"name": "Van Nijenrodeweg", "public_transport": "stop_position", "railway": "tram_stop", "tram": "yes"}}, {"type": "node", "id": 296996392, "lat": 52.3352796, "lon": 4.8544501, "tags": {"name": "Jollenpad", "public_transport": "stop_position", "railway": "tram_stop", "tram": "yes"}}, {"type": "node", "id": 296999161, "lat": 52.3411779, "lon": 4.8524016, "tags": {"description": "halte IJsbaanpad", "name": "IJsbaanpad", "note": "position unsure", "public_transport": "stop_position", "railway": "tram_stop", "tram": "yes"}}, {"type": "node", "id": 297095283, "lat": 52.3710541, "lon": 4.8708148, "tags": {"name": "Bilderdijkstraat", "public_transport": "stop_position", "railway": "tram_stop", "tram": "yes", "wheelchair": "yes", "wikidata": "Q111307980"}}, {"type": "node", "id": 297099561, "lat": 52.3768181, "lon": 4.9373469, "tags": {"name": "Azartplein", "public_transport": "stop_position", "railway": "tram_stop", "tram": "yes", "wheelchair": "yes", "wikidata": "Q111369771"}}, {"type": "node", "id": 297099562, "lat": 52.3766133, "lon": 4.9373223, "tags": {"name": "Azartplein", "public_transport": "stop_position", "railway": "tram_stop", "tram": "yes", "wheelchair": "yes", "wikidata": "Q111369771"}}, {"type": "node", "id": 297934760, "lat": 52.3467738, "lon": 4.8730291, "tags": {"name": "Minervaplein", "public_transport": "stop_position", "railway": "tram_stop", "ref:IFOPT": "NL:Q:30007091", "tram": "yes", "wikidata": "Q111442481"}}, {"type": "node", "id": 297934761, "lat": 52.3468693, "lon": 4.8762769, "tags": {"name": "Beethovenstraat", "public_transport": "stop_position", "railway": "tram_stop", "ref:IFOPT": "NL:Q:30007308", "tram": "yes", "wikidata": "Q111364718"}}, {"type": "node", "id": 297934763, "lat": 52.3488198, "lon": 4.8771911, "tags": {"name": "Gerrit van der Veenstraat", "public_transport": "stop_position", "railway": "tram_stop", "ref:IFOPT": "NL:Q:30007084", "tram": "yes", "wikidata": "Q111364719"}}, {"type": "node", "id": 297934764, "lat": 52.3492157, "lon": 4.877365, "tags": {"name": "Gerrit van der Veenstraat", "public_transport": "stop_position", "railway": "tram_stop", "ref:IFOPT": "NL:Q:30007083", "tram": "yes", "wikidata": "Q111364719"}}, {"type": "node", "id": 302344233, "lat": 52.3015775, "lon": 4.8479601, "tags": {"name": "Station Amstelveen", "public_transport": "stop_position", "railway": "tram_stop", "tram": "yes"}}, {"type": "node", "id": 303720945, "lat": 52.3408227, "lon": 4.8739688, "tags": {"name": "Station Zuid", "public_transport": "stop_position", "railway": "tram_stop", "ref": "C", "ref:IFOPT": "NL:Q:30007268", "tram": "yes", "wheelchair": "yes", "wikidata": "Q101195703"}}, {"type": "node", "id": 304076333, "lat": 52.3681426, "lon": 4.9263002, "tags": {"name": "Eerste Coehoornstraat", "public_transport": "stop_position", "railway": "tram_stop", "toilets:wheelchair": "no", "tram": "yes", "wheelchair": "yes", "wikidata": "Q111378174"}}, {"type": "node", "id": 304965084, "lat": 52.3248943, "lon": 4.8689764, "tags": {"name": "Van Boshuizenstraat", "public_transport": "stop_position", "railway": "tram_stop", "tram": "yes", "wheelchair": "yes", "wikidata": "Q2637401", "wikipedia": "nl:Van Boshuizenstraat (tramhalte)"}}, {"type": "node", "id": 304984034, "lat": 52.3212764, "lon": 4.8691021, "tags": {"name": "Uilenstede", "public_transport": "stop_position", "railway": "tram_stop", "tram": "yes", "website": "https://9292.nl/en/amstelveen/tramhalte-uilenstede", "wheelchair": "yes", "wikidata": "Q2457557", "wikipedia": "nl:Uilenstede (tramhalte)"}}, {"type": "node", "id": 305163755, "lat": 52.3732299, "lon": 4.9334664, "tags": {"name": "Rietlandpark", "public_transport": "stop_position", "railway": "tram_stop", "ref:IFOPT": "NL:Q:30008226", "tram": "yes", "wheelchair": "yes", "wikidata": "Q111378177"}}, {"type": "node", "id": 305789993, "lat": 52.3463018, "lon": 4.8658574, "tags": {"name": "Olympiaplein", "public_transport": "stop_position", "railway": "tram_stop", "ref:IFOPT": "NL:Q:30007097", "tram": "yes", "wikidata": "Q111442482"}}, {"type": "node", "id": 310569749, "lat": 52.3638329, "lon": 4.8983188, "tags": {"name": "Keizersgracht", "public_transport": "stop_position", "railway": "tram_stop", "tram": "yes", "wheelchair": "yes", "wikidata": "Q111343615"}}, {"type": "node", "id": 310569756, "lat": 52.3599361, "lon": 4.8990837, "tags": {"name": "Frederiksplein", "public_transport": "stop_position", "railway": "tram_stop", "tram": "yes", "wheelchair": "yes", "wikidata": "Q111286556"}}, {"type": "node", "id": 310569757, "lat": 52.3576504, "lon": 4.8993709, "tags": {"name": "Stadhouderskade", "public_transport": "stop_position", "railway": "tram_stop", "tram": "yes", "wheelchair": "yes"}}, {"type": "node", "id": 310573222, "lat": 52.3446536, "lon": 4.9011051, "tags": {"name": "Waalstraat", "public_transport": "stop_position", "railway": "tram_stop", "ref:IFOPT": "NL:Q:30009060", "tram": "yes", "wikidata": "Q111335841"}}, {"type": "node", "id": 310573223, "lat": 52.3444211, "lon": 4.9005615, "tags": {"name": "Waalstraat", "public_transport": "stop_position", "railway": "tram_stop", "ref:IFOPT": "NL:Q:30009061", "tram": "yes", "wikidata": "Q111335841"}}, {"type": "node", "id": 310573224, "lat": 52.3428638, "lon": 4.8962714, "tags": {"name": "Maasstraat", "public_transport": "stop_position", "railway": "tram_stop", "ref:IFOPT": "NL:Q:30009068", "tram": "yes", "wikidata": "Q111335797"}}, {"type": "node", "id": 310573225, "lat": 52.343118, "lon": 4.896873, "tags": {"name": "Maasstraat", "public_transport": "stop_position", "railway": "tram_stop", "ref:IFOPT": "NL:Q:30009069", "tram": "yes", "wikidata": "Q111335797"}}, {"type": "node", "id": 310573227, "lat": 52.341925, "lon": 4.8930007, "tags": {"name": "Dintelstraat", "public_transport": "stop_position", "railway": "tram_stop", "ref:IFOPT": "NL:Q:30009003", "tram": "yes", "wikidata": "Q111335794"}}, {"type": "node", "id": 310573230, "lat": 52.3369049, "lon": 4.8905473, "tags": {"name": "Station RAI", "public_transport": "stop_position", "railway": "tram_stop", "tram": "yes", "wheelchair": "yes", "wikidata": "Q111334932"}}, {"type": "node", "id": 317956000, "lat": 52.3546903, "lon": 4.9008616, "tags": {"name": "Van Woustraat", "public_transport": "stop_position", "railway": "tram_stop", "tram": "yes", "wheelchair": "yes", "wikidata": "Q111318135"}}, {"type": "node", "id": 317956001, "lat": 52.3549446, "lon": 4.9015849, "tags": {"name": "Van Woustraat", "public_transport": "stop_position", "railway": "tram_stop", "tram": "yes", "wheelchair": "yes", "wikidata": "Q111318135"}}, {"type": "node", "id": 319641124, "lat": 52.3668676, "lon": 4.9248123, "tags": {"name": "Hoogte Kadijk", "public_transport": "stop_position", "railway": "tram_stop", "tram": "yes", "wheelchair": "limited", "wikidata": "Q111378172"}}, {"type": "node", "id": 330028855, "lat": 52.3700769, "lon": 4.9293975, "tags": {"name": "Eerste Leeghwaterstraat", "public_transport": "stop_position", "railway": "tram_stop", "tram": "yes", "wheelchair": "limited", "wikidata": "Q111378176"}}, {"type": "node", "id": 371226400, "lat": 52.359326, "lon": 4.8077454, "tags": {"name": "Osdorpplein Oost", "public_transport": "stop_position", "railway": "tram_stop", "tram": "yes", "wheelchair": "yes", "wikidata": "Q111419289"}}, {"type": "node", "id": 371265387, "lat": 52.3650035, "lon": 4.8843839, "tags": {"name": "Prinsengracht", "public_transport": "stop_position", "railway": "tram_stop", "tram": "yes", "wheelchair": "yes", "wikidata": "Q111305181"}}, {"type": "node", "id": 371265504, "lat": 52.3659309, "lon": 4.8863435, "tags": {"name": "Keizersgracht", "public_transport": "stop_position", "railway": "tram_stop", "tram": "yes", "wheelchair": "yes", "wikidata": "Q111305180"}}, {"type": "node", "id": 388184245, "lat": 52.3511004, "lon": 5.0048219, "tags": {"name": "IJburg", "public_transport": "stop_position", "railway": "tram_stop", "tram": "yes", "wheelchair": "limited", "wikidata": "Q111458112"}}, {"type": "node", "id": 418653418, "lat": 52.3452652, "lon": 4.8583402, "tags": {"name": "Olympiaweg", "public_transport": "stop_position", "railway": "tram_stop", "ref:IFOPT": "NL:Q:30007120", "tram": "yes", "wheelchair": "limited", "wikidata": "Q111442483"}}, {"type": "node", "id": 427558737, "lat": 52.3778942, "lon": 4.9003819, "tags": {"name": "Centraal Station", "name:de": "Hauptbahnhof", "name:es": "Central Station Amsterdam", "name:nl": "Centraal Station", "public_transport": "stop_position", "railway": "tram_stop", "ref": "A2", "tram": "yes", "wikidata": "Q21548886"}}, {"type": "node", "id": 427558833, "lat": 52.3778507, "lon": 4.9009769, "tags": {"name": "Centraal Station", "name:de": "Hauptbahnhof", "public_transport": "stop_position", "railway": "tram_stop", "ref": "A1", "tram": "yes"}}, {"type": "node", "id": 427560648, "lat": 52.3610021, "lon": 4.9071213, "tags": {"name": "Weesperplein", "public_transport": "stop_position", "railway": "tram_stop", "tram": "yes", "wheelchair": "yes", "wikidata": "Q111286555"}}, {"type": "node", "id": 427560737, "lat": 52.3614042, "lon": 4.9091584, "tags": {"name": "Weesperplein", "public_transport": "stop_position", "railway": "tram_stop", "tram": "yes", "wikidata": "Q111286555"}}, {"type": "node", "id": 427561909, "lat": 52.3572865, "lon": 4.9093615, "tags": {"name": "Wibautstraat", "public_transport": "stop_position", "railway": "tram_stop", "tram": "yes", "wikidata": "Q111318134"}}, {"type": "node", "id": 427562504, "lat": 52.3612127, "lon": 4.9328494, "tags": {"name": "Muiderpoortstation", "public_transport": "stop_position", "railway": "tram_stop", "ref:IFOPT": "NL:Q:30000005", "tram": "yes", "wheelchair": "yes"}}, {"type": "node", "id": 434142267, "lat": 52.3471106, "lon": 4.9109989, "tags": {"name": "Amsteldijk", "public_transport": "stop_position", "railway": "tram_stop", "ref:IFOPT": "NL:Q:30009140", "tram": "yes", "wikidata": "Q111382633"}}, {"type": "node", "id": 434142268, "lat": 52.3468171, "lon": 4.9003351, "tags": {"name": "Waalstraat", "public_transport": "stop_position", "railway": "tram_stop", "ref:IFOPT": "NL:Q:30009083", "tram": "yes", "wikidata": "Q111382635"}}, {"type": "node", "id": 434142269, "lat": 52.3465631, "lon": 4.8997164, "tags": {"name": "Waalstraat", "public_transport": "stop_position", "railway": "tram_stop", "ref:IFOPT": "NL:Q:30009082", "tram": "yes", "wikidata": "Q111382635"}}, {"type": "node", "id": 434142275, "lat": 52.3472646, "lon": 4.8915256, "tags": {"name": "Scheldestraat", "public_transport": "stop_position", "railway": "tram_stop", "ref:IFOPT": "NL:Q:30009075", "tram": "yes"}}, {"type": "node", "id": 434397628, "lat": 52.3828002, "lon": 4.8508513, "tags": {"name": "Wiltzanghlaan", "public_transport": "stop_position", "railway": "tram_stop", "tram": "yes", "wikidata": "Q111426981"}}, {"type": "node", "id": 434397629, "lat": 52.3811188, "lon": 4.8539004, "tags": {"name": "Bos en Lommerweg", "public_transport": "stop_position", "railway": "tram_stop", "tram": "yes", "wikidata": "Q111426980", "zone": "5713"}}, {"type": "node", "id": 434397631, "lat": 52.3788687, "lon": 4.8569721, "tags": {"name": "Karel Doormanstraat", "public_transport": "stop_position", "railway": "tram_stop", "tram": "yes", "wikidata": "Q111426979"}}, {"type": "node", "id": 434397633, "lat": 52.3773555, "lon": 4.8577243, "tags": {"name": "De Rijpstraat", "public_transport": "stop_position", "railway": "tram_stop", "tram": "yes"}}, {"type": "node", "id": 434397634, "lat": 52.3751323, "lon": 4.8584711, "tags": {"name": "Jan van Galenstraat", "public_transport": "stop_position", "railway": "tram_stop", "tram": "yes", "wheelchair": "limited", "wikidata": "Q111426983"}}, {"type": "node", "id": 434397635, "lat": 52.3743002, "lon": 4.8586427, "tags": {"name": "Jan van Galenstraat", "public_transport": "stop_position", "railway": "tram_stop", "tram": "yes", "wheelchair": "limited", "wikidata": "Q111426983"}}, {"type": "node", "id": 434397637, "lat": 52.371502, "lon": 4.8600128, "tags": {"name": "Admiraal De Ruijterweg", "official_name": "Admiraal de Ruijterweg", "public_transport": "stop_position", "railway": "tram_stop", "tram": "yes", "wheelchair": "yes", "wikidata": "Q111383644"}}, {"type": "node", "id": 434398865, "lat": 52.3706925, "lon": 4.8636349, "tags": {"name": "Willem de Zwijgerlaan", "public_transport": "stop_position", "railway": "tram_stop", "tram": "yes", "wheelchair": "yes", "wikidata": "Q111383639"}}, {"type": "node", "id": 434414719, "lat": 52.3735665, "lon": 4.9388456, "tags": {"name": "C. van Eesterenlaan", "public_transport": "stop_position", "railway": "tram_stop", "ref:IFOPT": "NL:Q:30008012", "tram": "yes", "wheelchair": "yes", "wikidata": "Q111378178"}}, {"type": "node", "id": 434430962, "lat": 52.3638735, "lon": 4.9192366, "tags": {"name": "Alexanderplein", "public_transport": "stop_position", "railway": "tram_stop", "tram": "yes", "wheelchair": "yes", "wikidata": "Q111376243"}}, {"type": "node", "id": 434441207, "lat": 52.3623479, "lon": 4.9135923, "tags": {"name": "Korte 's-Gravesandestraat", "public_transport": "stop_position", "railway": "tram_stop", "tram": "yes", "wikidata": "Q111286554"}}, {"type": "node", "id": 434441216, "lat": 52.3595051, "lon": 4.8921024, "tags": {"name": "Vijzelgracht", "old_name": "Weteringcircuit", "public_transport": "stop_position", "railway": "tram_stop", "tram": "yes", "wheelchair": "yes", "wikidata": "Q111286557"}}, {"type": "node", "id": 434441223, "lat": 52.3773658, "lon": 4.8784155, "tags": {"bus": "yes", "name": "Marnixplein", "public_transport": "stop_position", "railway": "tram_stop", "tram": "yes", "wheelchair": "yes", "wikidata": "Q111364866"}}, {"type": "node", "id": 434441252, "lat": 52.3832175, "lon": 4.8770204, "tags": {"name": "De Wittenkade", "public_transport": "stop_position", "railway": "tram_stop", "tram": "yes", "wheelchair": "yes", "wikidata": "Q111307091"}}, {"type": "node", "id": 434441260, "lat": 52.3842644, "lon": 4.8698541, "tags": {"name": "Van Hallstraat", "public_transport": "stop_position", "railway": "tram_stop", "tram": "yes", "wheelchair": "yes", "wikidata": "Q111305421"}}, {"type": "node", "id": 434497040, "lat": 52.3393768, "lon": 4.9555768, "tags": {"name": "Arent Krijtsstraat", "public_transport": "stop_position", "railway": "tram_stop", "tram": "yes", "wikidata": "Q111434568"}}, {"type": "node", "id": 434504353, "lat": 52.3507313, "lon": 4.935404, "tags": {"name": "Hugo de Vrieslaan", "public_transport": "stop_position", "railway": "tram_stop", "source": "CXX", "tram": "yes", "wikidata": "Q111434572", "zone": "5715"}}, {"type": "node", "id": 434507136, "lat": 52.353568, "lon": 4.9308725, "tags": {"name": "Hogeweg", "public_transport": "stop_position", "railway": "tram_stop", "tram": "yes", "wheelchair": "yes", "wikidata": "Q111434574"}}, {"type": "node", "id": 434507137, "lat": 52.3570067, "lon": 4.9272293, "tags": {"name": "Oostpoort", "old_name": "Pretoriusstraat", "public_transport": "stop_position", "railway": "tram_stop", "tram": "yes", "wheelchair": "limited", "wikidata": "Q111434587"}}, {"type": "node", "id": 434507138, "lat": 52.3601162, "lon": 4.9257029, "tags": {"name": "Linnaeusstraat", "public_transport": "stop_position", "railway": "tram_stop", "tram": "yes", "wheelchair": "yes", "wikidata": "Q111284676"}}, {"type": "node", "id": 434507140, "lat": 52.3597959, "lon": 4.92547, "tags": {"name": "Wijttenbachstraat", "public_transport": "stop_position", "railway": "tram_stop", "tram": "yes", "wheelchair": "yes", "wikidata": "Q111284676"}}, {"type": "node", "id": 434509970, "lat": 52.3667187, "lon": 4.910955, "tags": {"name": "Artis", "public_transport": "stop_position", "railway": "tram_stop", "tram": "yes", "wikidata": "Q111397554"}}, {"type": "node", "id": 434524953, "lat": 52.3647569, "lon": 4.9476342, "tags": {"name": "Insulindeweg", "public_transport": "stop_position", "railway": "tram_stop", "tram": "yes", "wikidata": "Q111318131"}}, {"type": "node", "id": 434524954, "lat": 52.3622746, "lon": 4.9441018, "tags": {"name": "Soembawastraat", "public_transport": "stop_position", "railway": "tram_stop", "tram": "yes", "wikidata": "Q111318132"}}, {"type": "node", "id": 434524956, "lat": 52.3617259, "lon": 4.9401785, "tags": {"name": "Molukkenstraat", "public_transport": "stop_position", "railway": "tram_stop", "ref:IFOPT": "NL:Q:30008290", "tram": "yes", "wheelchair": "limited", "wikidata": "Q111318130"}}, {"type": "node", "id": 434524959, "lat": 52.3590732, "lon": 4.9167422, "tags": {"name": "Beukenweg", "public_transport": "stop_position", "railway": "tram_stop", "tram": "yes", "wheelchair": "yes", "wikidata": "Q111286553"}}, {"type": "node", "id": 434552819, "lat": 52.3744231, "lon": 4.8912853, "tags": {"name": "Dam", "public_transport": "stop_position", "railway": "tram_stop", "tram": "yes", "wheelchair": "yes", "wikidata": "Q111305178"}}, {"type": "node", "id": 434560935, "lat": 52.381394, "lon": 4.8809562, "tags": {"name": "Nieuwe Willemstraat", "public_transport": "stop_position", "railway": "tram_stop", "tram": "yes", "wheelchair": "yes", "wikidata": "Q111364868"}}, {"type": "node", "id": 434598996, "lat": 52.3537327, "lon": 4.7747567, "tags": {"name": "Matterhorn", "public_transport": "stop_position", "railway": "tram_stop", "tram": "yes", "wikidata": "Q111284159"}}, {"type": "node", "id": 434598999, "lat": 52.352828, "lon": 4.7770976, "tags": {"name": "Pilatus", "public_transport": "stop_position", "railway": "tram_stop", "tram": "yes", "wikidata": "Q111291714"}}, {"type": "node", "id": 434599001, "lat": 52.3501979, "lon": 4.7836582, "tags": {"name": "Inaristraat", "public_transport": "stop_position", "railway": "tram_stop", "tram": "yes"}}, {"type": "node", "id": 434599008, "lat": 52.3498075, "lon": 4.7888748, "tags": {"name": "Ecuplein", "public_transport": "stop_position", "railway": "tram_stop", "tram": "yes", "wheelchair": "yes", "wikidata": "Q111291717"}}, {"type": "node", "id": 434599011, "lat": 52.3510417, "lon": 4.7951129, "tags": {"name": "Baden Powellweg", "public_transport": "stop_position", "railway": "tram_stop", "tram": "yes", "wikidata": "Q111291718"}}, {"type": "node", "id": 434599013, "lat": 52.3525411, "lon": 4.8025242, "tags": {"name": "Hoekenes", "public_transport": "stop_position", "railway": "tram_stop", "tram": "yes", "wheelchair": "yes", "wikidata": "Q111291719"}}, {"type": "node", "id": 434599016, "lat": 52.3539266, "lon": 4.8090899, "tags": {"name": "Louis Davidsstraat", "public_transport": "stop_position", "railway": "tram_stop", "tram": "yes", "wheelchair": "yes", "wikidata": "Q111291720"}}, {"type": "node", "id": 434599019, "lat": 52.3564413, "lon": 4.7913, "tags": {"name": "Baden Powellweg", "public_transport": "stop_position", "railway": "tram_stop", "tram": "yes", "wikidata": "Q111419283"}}, {"type": "node", "id": 434599022, "lat": 52.3579858, "lon": 4.7990044, "tags": {"name": "Hoekenes", "public_transport": "stop_position", "railway": "tram_stop", "tram": "yes", "wikidata": "Q111419285"}}, {"type": "node", "id": 434611618, "lat": 52.3617312, "lon": 4.8532957, "tags": {"name": "Corantijnstraat", "public_transport": "stop_position", "railway": "tram_stop", "tram": "yes", "wikidata": "Q111419293"}}, {"type": "node", "id": 434611624, "lat": 52.3648019, "lon": 4.8591799, "tags": {"name": "Witte de Withstraat", "public_transport": "stop_position", "railway": "tram_stop", "tram": "yes", "wikidata": "Q111375699"}}, {"type": "node", "id": 434636552, "lat": 52.3654149, "lon": 4.8653608, "tags": {"name": "Nicolaas Beetsstraat", "public_transport": "stop_position", "railway": "tram_stop", "tram": "yes", "wheelchair": "limited"}}, {"type": "node", "id": 434636555, "lat": 52.365525, "lon": 4.8656566, "tags": {"name": "Nicolaas Beetsstraat", "public_transport": "stop_position", "railway": "tram_stop", "tram": "yes", "wheelchair": "limited"}}, {"type": "node", "id": 434636559, "lat": 52.3671317, "lon": 4.8717586, "tags": {"name": "Bilderdijkstraat", "public_transport": "stop_position", "railway": "tram_stop", "tram": "yes", "wheelchair": "yes", "wikidata": "Q111307979"}}, {"type": "node", "id": 434646764, "lat": 52.3590503, "lon": 4.8603541, "tags": {"name": "Rhijnvis Feithstraat", "public_transport": "stop_position", "railway": "tram_stop", "tram": "yes", "wikidata": "Q111291259"}}, {"type": "node", "id": 434646765, "lat": 52.3588447, "lon": 4.8596776, "tags": {"name": "Rhijnvis Feithstraat", "public_transport": "stop_position", "railway": "tram_stop", "tram": "yes", "wheelchair": "limited", "wikidata": "Q111291259"}}, {"type": "node", "id": 434662838, "lat": 52.3772583, "lon": 4.8032895, "tags": {"name": "Lambertus Zijlplein", "public_transport": "stop_position", "railway": "tram_stop", "tram": "yes", "wikidata": "Q111383650"}}, {"type": "node", "id": 434662842, "lat": 52.3769399, "lon": 4.8062691, "tags": {"name": "Doctor H. Colijnstraat", "official_name": "Dr. H. Colijnstraat", "public_transport": "stop_position", "railway": "tram_stop", "tram": "yes"}}, {"type": "node", "id": 434662845, "lat": 52.3764548, "lon": 4.8120231, "tags": {"name": "Burgemeester Van Leeuwenlaan", "public_transport": "stop_position", "railway": "tram_stop", "tram": "yes", "wikidata": "Q111396104"}}, {"type": "node", "id": 434662848, "lat": 52.3754362, "lon": 4.8206483, "tags": {"name": "Slotermeerlaan", "public_transport": "stop_position", "railway": "tram_stop", "tram": "yes", "wikidata": "Q111372127"}}, {"type": "node", "id": 434662850, "lat": 52.3759547, "lon": 4.8173607, "tags": {"name": "Slotermeerlaan", "public_transport": "stop_position", "railway": "tram_stop", "tram": "yes", "wikidata": "Q111372127"}}, {"type": "node", "id": 434662855, "lat": 52.3743645, "lon": 4.8277027, "tags": {"name": "Burgemeester Rendorpstraat", "public_transport": "stop_position", "railway": "tram_stop", "tram": "yes", "wikidata": "Q111396102"}}, {"type": "node", "id": 434662859, "lat": 52.3744723, "lon": 4.8268013, "tags": {"name": "Burgemeester Rendorpstraat", "public_transport": "stop_position", "railway": "tram_stop", "tram": "yes", "wikidata": "Q111396102"}}, {"type": "node", "id": 434662863, "lat": 52.3730297, "lon": 4.8359077, "tags": {"name": "Jan van Galenstraat", "public_transport": "stop_position", "railway": "tram_stop", "tram": "yes", "wikidata": "Q111396101"}}, {"type": "node", "id": 434675414, "lat": 52.3708325, "lon": 4.8377996, "tags": {"name": "Jan Tooropstraat", "public_transport": "stop_position", "railway": "tram_stop", "tram": "yes", "wikidata": "Q111396099"}}, {"type": "node", "id": 434675418, "lat": 52.3695968, "lon": 4.8384594, "tags": {"name": "Jan Voermanstraat", "public_transport": "stop_position", "railway": "tram_stop", "tram": "yes", "wikidata": "Q111396111"}}, {"type": "node", "id": 434675421, "lat": 52.3701459, "lon": 4.8507957, "tags": {"name": "Mercatorplein", "public_transport": "stop_position", "railway": "tram_stop", "tram": "yes", "wikidata": "Q111375707"}}, {"type": "node", "id": 434675423, "lat": 52.3709604, "lon": 4.8554942, "tags": {"name": "Marco Polostraat", "public_transport": "stop_position", "railway": "tram_stop", "tram": "yes", "wikidata": "Q111383645"}}, {"type": "node", "id": 434696265, "lat": 52.3750672, "lon": 4.8187509, "tags": {"name": "Burgemeester Ro\u00ebllstraat", "public_transport": "stop_position", "railway": "tram_stop", "tram": "yes", "wikidata": "Q111372127"}}, {"type": "node", "id": 434700014, "lat": 52.3733319, "lon": 4.8485891, "tags": {"name": "Jan van Galenstraat", "public_transport": "stop_position", "railway": "tram_stop", "tram": "yes", "wikidata": "Q111375708"}}, {"type": "node", "id": 440969465, "lat": 52.3727319, "lon": 4.891245, "tags": {"name": "Dam", "note": "tramhalte voor omleidingen en calamiteiten", "public_transport": "stop_position", "railway": "tram_stop", "tram": "yes", "wikidata": "Q111305178"}}, {"type": "node", "id": 440969468, "lat": 52.3735587, "lon": 4.8913489, "tags": {"name": "Dam", "note": "tramhalte voor omleidingen en calamiteiten", "public_transport": "stop_position", "railway": "tram_stop", "tram": "yes", "wikidata": "Q111305178"}}, {"type": "node", "id": 500365599, "lat": 52.3573493, "lon": 4.9097221, "tags": {"name": "Wibautstraat", "public_transport": "stop_position", "railway": "tram_stop", "tram": "yes", "wikidata": "Q111318134", "zone": "5700"}}, {"type": "node", "id": 500371070, "lat": 52.3533345, "lon": 4.8949263, "tags": {"name": "Tweede Van der Helststraat", "public_transport": "stop_position", "railway": "tram_stop", "tram": "yes", "wheelchair": "yes", "wikidata": "Q111318136"}}, {"type": "node", "id": 502259162, "lat": 52.338422, "lon": 4.8572486, "tags": {"name": "Amstelveenseweg", "public_transport": "stop_position", "railway": "tram_stop", "ref:IFOPT": "NL:Q:30007493", "tram": "yes", "wheelchair": "no", "wikidata": "Q111442488", "zone": "5714"}}, {"type": "node", "id": 502259165, "lat": 52.3382323, "lon": 4.857301, "tags": {"cxx:code": "57142880", "cxx:id": "32624", "name": "Amstelveenseweg", "public_transport": "stop_position", "railway": "tram_stop", "ref:IFOPT": "NL:Q:30007490", "tram": "yes", "wheelchair": "no", "wikidata": "Q111442488", "zone": "5714"}}, {"type": "node", "id": 502259168, "lat": 52.3416051, "lon": 4.8577457, "tags": {"cxx:code": "57142580", "cxx:id": "32592", "name": "IJsbaanpad", "public_transport": "stop_position", "railway": "tram_stop", "ref:IFOPT": "NL:Q:30007205", "tram": "yes", "wheelchair": "no", "wikidata": "Q111442485", "zone": "5714"}}, {"type": "node", "id": 502259173, "lat": 52.3405981, "lon": 4.8575621, "tags": {"name": "IJsbaanpad", "public_transport": "stop_position", "railway": "tram_stop", "ref:IFOPT": "NL:Q:30007207", "tram": "yes", "wikidata": "Q111442485", "zone": "5714"}}, {"type": "node", "id": 502269968, "lat": 52.3440249, "lon": 4.8568368, "tags": {"bench": "yes", "covered": "no", "name": "Olympisch Stadion", "public_transport": "stop_position", "railway": "tram_stop", "ref:IFOPT": "NL:Q:30007202", "shelter": "yes", "tram": "yes", "wheelchair": "limited", "wikidata": "Q111442484", "zone": "5714"}}, {"type": "node", "id": 502269979, "lat": 52.3529363, "lon": 4.8695155, "tags": {"name": "Emmastraat", "public_transport": "stop_position", "railway": "tram_stop", "source": "CXX", "tram": "yes", "zone": "5700"}}, {"type": "node", "id": 502341044, "lat": 52.3695272, "lon": 4.8775579, "tags": {"name": "Elandsgracht", "public_transport": "stop_position", "railway": "tram_stop", "tram": "yes", "wikidata": "Q111364862"}}, {"type": "node", "id": 695213988, "lat": 52.3479273, "lon": 4.9398853, "tags": {"name": "Kruislaan", "public_transport": "stop_position", "railway": "tram_stop", "source": "CXX", "tram": "yes", "zone": "5715"}}, {"type": "node", "id": 702260759, "lat": 52.3771934, "lon": 4.8464234, "tags": {"bench": "yes", "bin": "yes", "bus": "yes", "highway": "bus_stop", "lit": "yes", "name": "Bos en Lommerplein", "public_transport": "platform", "railway": "tram_stop", "shelter": "yes", "tactile_paving": "yes", "wheelchair": "limited", "zone": "5713"}}, {"type": "node", "id": 702260888, "lat": 52.3491038, "lon": 4.8275024, "tags": {"name": "Johan Huizingalaan", "public_transport": "stop_position", "railway": "tram_stop", "tram": "yes", "wikidata": "Q111295892", "zone": "5713"}}, {"type": "node", "id": 702260913, "lat": 52.3777823, "lon": 4.8449335, "tags": {"name": "Bos en Lommerplein", "public_transport": "stop_position", "railway": "tram_stop", "tram": "yes", "wikidata": "Q111375710", "zone": "5713"}}, {"type": "node", "id": 702261011, "lat": 52.349218, "lon": 4.8274406, "tags": {"name": "Johan Huizingalaan", "public_transport": "stop_position", "railway": "tram_stop", "tram": "yes", "wikidata": "Q111295892", "zone": "5713"}}, {"type": "node", "id": 721160479, "lat": 52.3798913, "lon": 4.8312794, "tags": {"name": "Burgemeester Fockstraat", "public_transport": "stop_position", "railway": "tram_stop", "source": "CXX", "tram": "yes", "wikidata": "Q111372135", "zone": "5713"}}, {"type": "node", "id": 721160483, "lat": 52.3787581, "lon": 4.8382938, "tags": {"name": "Burgemeester de Vlugtlaan", "public_transport": "stop_position", "railway": "tram_stop", "source": "CXX", "tram": "yes", "wikidata": "Q111372139", "zone": "5713"}}, {"type": "node", "id": 721160531, "lat": 52.3808373, "lon": 4.8211591, "tags": {"name": "Plein '40-'45", "public_transport": "stop_position", "railway": "tram_stop", "tram": "yes", "wikidata": "Q111372129", "zone": "5713"}}, {"type": "node", "id": 721160537, "lat": 52.378963, "lon": 4.8372054, "tags": {"name": "Burgemeester de Vlugtlaan", "public_transport": "stop_position", "railway": "tram_stop", "source": "CXX", "tram": "yes", "website": "https://9292.nl/en/amsterdam/bus-tramhalte-station-burg-de-vlugtlaan", "wikidata": "Q111372139", "zone": "5713"}}, {"type": "node", "id": 721160612, "lat": 52.3726552, "lon": 4.8758665, "tags": {"name": "Rozengracht", "public_transport": "stop_position", "railway": "tram_stop", "route_ref": "10;80", "source": "AND;CXX", "tram": "yes", "wikidata": "Q111364863", "zone": "5700"}}, {"type": "node", "id": 721160625, "lat": 52.3723364, "lon": 4.8763385, "tags": {"name": "Marnixstraat", "public_transport": "stop_position", "railway": "tram_stop", "tram": "yes", "wikidata": "Q111364863"}}, {"type": "node", "id": 721160643, "lat": 52.3812253, "lon": 4.8225241, "tags": {"name": "Plein '40-'45", "public_transport": "stop_position", "railway": "tram_stop", "source": "CXX", "tram": "yes", "wikidata": "Q111372129", "zone": "5713"}}, {"type": "node", "id": 721160690, "lat": 52.3681689, "lon": 4.8784804, "tags": {"name": "Elandsgracht", "public_transport": "stop_position", "railway": "tram_stop", "tram": "yes", "wikidata": "Q111364862"}}, {"type": "node", "id": 721160706, "lat": 52.38075, "lon": 4.8258104, "tags": {"name": "Burgemeester Eliasstraat", "public_transport": "stop_position", "railway": "tram_stop", "source": "CXX", "tram": "yes", "wheelchair": "yes", "wikidata": "Q111372132", "zone": "5713"}}, {"type": "node", "id": 721160782, "lat": 52.368541, "lon": 4.8768971, "tags": {"name": "Elandsgracht", "public_transport": "stop_position", "railway": "tram_stop", "tram": "yes", "wikidata": "Q111364862"}}, {"type": "node", "id": 721160810, "lat": 52.3804505, "lon": 4.8275036, "tags": {"name": "Burgemeester Eliasstraat", "public_transport": "stop_position", "railway": "tram_stop", "source": "CXX", "tram": "yes", "wheelchair": "yes", "wikidata": "Q111372132", "zone": "5713"}}, {"type": "node", "id": 721160815, "lat": 52.3795507, "lon": 4.8332396, "tags": {"name": "Burgemeester Fockstraat", "public_transport": "stop_position", "railway": "tram_stop", "source": "CXX", "tram": "yes", "wikidata": "Q111372135", "zone": "5713"}}, {"type": "node", "id": 724099181, "lat": 52.3351977, "lon": 4.8600614, "tags": {"cxx:code": "57142030", "cxx:id": "32536", "name": "VUmc Hoofdingang", "public_transport": "stop_position", "railway": "tram_stop", "ref:IFOPT": "NL:Q:30007350", "tram": "yes", "wikidata": "Q111442490", "zone": "5714"}}, {"type": "node", "id": 724099197, "lat": 52.3351485, "lon": 4.8611177, "tags": {"name": "VUmc Hoofdingang", "public_transport": "stop_position", "railway": "tram_stop", "ref:IFOPT": "NL:Q:30007303", "tram": "yes", "wikidata": "Q111442490", "zone": "5714"}}, {"type": "node", "id": 724232573, "lat": 52.3740565, "lon": 4.8837739, "tags": {"name": "Westermarkt", "public_transport": "stop_position", "railway": "tram_stop", "tram": "yes", "wikidata": "Q111383635"}}, {"type": "node", "id": 724232633, "lat": 52.3559245, "lon": 4.8791804, "tags": {"name": "Concertgebouw", "public_transport": "stop_position", "railway": "tram_stop", "tram": "yes", "wikidata": "Q111307976"}}, {"type": "node", "id": 724232636, "lat": 52.3563875, "lon": 4.8798146, "tags": {"name": "Concertgebouw", "public_transport": "stop_position", "railway": "tram_stop", "tram": "yes", "wheelchair": "yes", "wikidata": "Q111307976"}}, {"type": "node", "id": 724232674, "lat": 52.3438468, "lon": 4.8569523, "tags": {"bench": "yes", "covered": "no", "cxx:code": "57140450", "cxx:id": "32599", "name": "Olympisch Stadion", "public_transport": "stop_position", "railway": "tram_stop", "ref:IFOPT": "NL:Q:30007121", "shelter": "yes", "tram": "yes", "wheelchair": "limited", "wikidata": "Q111442484", "zone": "5714"}}, {"type": "node", "id": 724232677, "lat": 52.3740143, "lon": 4.8843359, "tags": {"name": "Westermarkt", "public_transport": "stop_position", "railway": "tram_stop", "tram": "yes", "wikidata": "Q111383635"}}, {"type": "node", "id": 724344100, "lat": 52.3512422, "lon": 4.856734, "tags": {"bus": "yes", "highway": "bus_stop", "name": "Zeilstraat", "public_transport": "stop_position", "railway": "tram_stop", "tactile_paving": "yes", "tram": "yes"}}, {"type": "node", "id": 724345008, "lat": 52.3516183, "lon": 4.8569532, "tags": {"name": "Amstelveenseweg", "public_transport": "stop_position", "railway": "tram_stop", "tactile_paving": "yes", "tram": "yes", "wikidata": "Q111301512"}}, {"type": "node", "id": 724345194, "lat": 52.3531926, "lon": 4.870169, "tags": {"bus": "yes", "name": "Emmastraat", "public_transport": "stop_position", "railway": "tram_stop", "source": "CXX", "tram": "yes", "zone": "5700"}}, {"type": "node", "id": 724345254, "lat": 52.3519533, "lon": 4.8582793, "tags": {"name": "Amstelveenseweg", "public_transport": "stop_position", "railway": "tram_stop", "tactile_paving": "yes", "tram": "yes", "wikidata": "Q111301512"}}, {"type": "node", "id": 724345268, "lat": 52.3517583, "lon": 4.8564723, "tags": {"highway": "bus_stop", "name": "Calamiteitenhalte, Amstelveenseweg", "note": "Calamiteitenhalte bij omleidingen en/of stremmingen.", "public_transport": "stop_position", "railway": "tram_stop", "tram": "yes"}}, {"type": "node", "id": 726817226, "lat": 52.3768269, "lon": 4.8946766, "tags": {"name": "Nieuwezijds Kolk", "public_transport": "stop_position", "railway": "tram_stop", "tram": "yes", "wikidata": "Q111305176", "zone": "5700"}}, {"type": "node", "id": 726817850, "lat": 52.3768464, "lon": 4.8946435, "tags": {"name": "Nieuwezijds Kolk", "public_transport": "stop_position", "railway": "tram_stop", "tram": "yes", "wikidata": "Q111305176", "zone": "5700"}}, {"type": "node", "id": 764161962, "lat": 52.3515095, "lon": 4.8337504, "tags": {"name": "Heemstedestraat", "public_transport": "stop_position", "railway": "tram_stop", "tram": "yes", "wheelchair": "yes", "wikidata": "Q111295883"}}, {"type": "node", "id": 795542606, "lat": 52.3760656, "lon": 4.9220599, "tags": {"name": "Kattenburgerstraat", "public_transport": "stop_position", "railway": "tram_stop", "ref:IFOPT": "NL:Q:30008236", "tram": "yes", "wheelchair": "yes", "wikidata": "Q111458111"}}, {"type": "node", "id": 795542860, "lat": 52.3720001, "lon": 4.9616961, "tags": {"name": "Zuiderzeeweg", "public_transport": "stop_position", "railway": "tram_stop", "ref:IFOPT": "NL:Q:30008240", "tram": "yes", "wikidata": "Q111458125"}}, {"type": "node", "id": 805087247, "lat": 52.3464822, "lon": 4.816387, "tags": {"name": "Laan van Vlaanderen", "public_transport": "stop_position", "railway": "tram_stop", "ref:IFOPT": "NL:Q:30004277", "tram": "yes", "wheelchair": "yes", "wikidata": "Q111295870"}}, {"type": "node", "id": 881345030, "lat": 52.3524376, "lon": 4.8018381, "tags": {"name": "Hoekenes", "public_transport": "stop_position", "railway": "tram_stop", "tram": "yes", "wheelchair": "yes", "wikidata": "Q111291719"}}, {"type": "node", "id": 1081322915, "lat": 52.3579573, "lon": 4.8397482, "tags": {"name": "Derkinderenstraat", "public_transport": "stop_position", "railway": "tram_stop", "tram": "yes", "wikidata": "Q111291724"}}, {"type": "node", "id": 1101710079, "lat": 52.3463657, "lon": 4.9056743, "tags": {"name": "Victorieplein", "public_transport": "stop_position", "railway": "tram_stop", "ref:IFOPT": "NL:Q:30009049", "tram": "yes", "wikidata": "Q111335849"}}, {"type": "node", "id": 1101710093, "lat": 52.3467733, "lon": 4.905072, "tags": {"name": "Victorieplein", "public_transport": "stop_position", "railway": "tram_stop", "ref:IFOPT": "NL:Q:30009050", "tram": "yes", "wheelchair": "limited", "wikidata": "Q111335849"}}, {"type": "node", "id": 1262086564, "lat": 52.358335, "lon": 4.9134821, "tags": {"name": "Camperstraat", "public_transport": "stop_position", "railway": "tram_stop", "tram": "yes", "wheelchair": "yes", "wikidata": "Q111318133"}}, {"type": "node", "id": 1351089483, "lat": 52.3708621, "lon": 4.8551084, "tags": {"name": "Marco Polostraat", "public_transport": "stop_position", "railway": "tram_stop", "tram": "yes", "wikidata": "Q111383645"}}, {"type": "node", "id": 1491878698, "lat": 52.3352308, "lon": 4.8659833, "tags": {"name": "De Boelelaan/VU", "public_transport": "stop_position", "railway": "tram_stop", "ref:IFOPT": "NL:Q:30007004", "tram": "yes", "wikidata": "Q111442491"}}, {"type": "node", "id": 1534218534, "lat": 52.3712485, "lon": 4.8705518, "tags": {"name": "De Clercqstraat", "public_transport": "stop_position", "railway": "tram_stop", "tram": "yes", "wheelchair": "yes", "wikidata": "Q111307980"}}, {"type": "node", "id": 1582427256, "lat": 52.3728449, "lon": 4.8186019, "tags": {"name": "Sloterpark", "public_transport": "stop_position", "railway": "tram_stop", "tram": "yes", "wikidata": "Q111369773"}}, {"type": "node", "id": 1584103895, "lat": 52.34941, "lon": 4.904043, "tags": {"name": "Amstelkade", "public_transport": "stop_position", "railway": "tram_stop", "tram": "yes", "wheelchair": "limited", "wikidata": "Q111336160"}}, {"type": "node", "id": 1595259761, "lat": 52.3617404, "lon": 4.9405051, "tags": {"name": "Molukkenstraat", "public_transport": "stop_position", "railway": "tram_stop", "ref:IFOPT": "NL:Q:30008291", "tram": "yes", "wheelchair": "yes", "wikidata": "Q111318130"}}, {"type": "node", "id": 1618762410, "lat": 52.3634456, "lon": 4.883062, "tags": {"int_name": "Leidseplein", "name": "Leidseplein", "name:en": "Leidseplein, 19", "name:nl": "Leidseplein", "name:zh": "\u840a\u8332\u5ee3\u5834", "public_transport": "stop_position", "railway": "tram_stop", "tram": "yes", "wheelchair": "no", "wikidata": "Q111291262"}}, {"type": "node", "id": 1618775729, "lat": 52.3605256, "lon": 4.8666219, "tags": {"name": "Jan Pieter Heijestraat", "public_transport": "stop_position", "railway": "tram_stop", "tram": "yes", "wikidata": "Q111291260"}}, {"type": "node", "id": 1686005101, "lat": 52.3515418, "lon": 4.8416382, "tags": {"bus": "yes", "name": "Delflandlaan", "public_transport": "stop_position", "railway": "tram_stop", "tram": "yes", "wheelchair": "yes", "wikidata": "Q111295880"}}, {"type": "node", "id": 1686005104, "lat": 52.351558, "lon": 4.83976, "tags": {"name": "Delflandlaan", "public_transport": "stop_position", "railway": "tram_stop", "tram": "yes", "wheelchair": "limited", "wikidata": "Q111295880"}}, {"type": "node", "id": 1690450992, "lat": 52.3646825, "lon": 4.8806933, "tags": {"description": "Halte Amsterdam Leidseplein - thv Marnixstraat - Richting NW", "name": "Leidseplein", "public_transport": "stop_position", "railway": "tram_stop", "tram": "yes", "wheelchair": "yes", "wikidata": "Q111291262"}}, {"type": "node", "id": 1716142293, "lat": 52.3766604, "lon": 4.8194571, "tags": {"name": "Burgemeester Ro\u00ebllstraat", "public_transport": "stop_position", "railway": "tram_stop", "tram": "yes", "wikidata": "Q111372127"}}, {"type": "node", "id": 1719343349, "lat": 52.338012, "lon": 4.8687238, "tags": {"name": "Parnassusweg", "public_transport": "stop_position", "railway": "tram_stop", "survey:date": "2021-08-19", "tram": "yes", "website": "https://9292.nl/en/amsterdam/tramhalte-parnassusweg", "wheelchair": "yes", "wikidata": "Q111358933"}}, {"type": "node", "id": 1923327168, "lat": 52.3329804, "lon": 4.8688734, "tags": {"name": "A. J. Ernststraat", "public_transport": "stop_position", "railway": "tram_stop", "tram": "yes", "wheelchair": "yes", "wikidata": "Q2313853", "wikipedia": "nl:A.J. Ernststraat (tramhalte)"}}, {"type": "node", "id": 1923339510, "lat": 52.3029279, "lon": 4.8718747, "tags": {"name": "Oranjebaan", "public_transport": "stop_position", "railway": "tram_stop", "tram": "yes", "website": "https://9292.nl/amstelveen/tramhalte-oranjebaan", "wikidata": "Q1867682", "wikimedia_commons": "File:Oranjebaan.jpg", "wikipedia": "nl:Oranjebaan (tramhalte)"}}, {"type": "node", "id": 1923365101, "lat": 52.2812036, "lon": 4.8573912, "tags": {"name": "Meent", "public_transport": "stop_position", "railway": "tram_stop", "tram": "yes", "wikidata": "Q1824137", "wikipedia": "nl:Meent (tramhalte)"}}, {"type": "node", "id": 1923365119, "lat": 52.2821847, "lon": 4.8323277, "tags": {"name": "Sacharovlaan", "public_transport": "stop_position", "railway": "tram_stop", "tram": "yes", "wheelchair": "yes", "wikidata": "Q2218736", "wikipedia": "nl:Sacharovlaan (tramhalte)"}}, {"type": "node", "id": 1978110960, "lat": 52.3555825, "lon": 4.7870176, "tags": {"name": "Dijkgraafplein", "public_transport": "stop_position", "railway": "tram_stop", "tram": "yes", "wikidata": "Q111407642"}}, {"type": "node", "id": 1978110972, "lat": 52.3554481, "lon": 4.7864929, "tags": {"name": "Dijkgraafplein", "public_transport": "stop_position", "railway": "tram_stop", "tram": "yes", "wikidata": "Q111407642"}}, {"type": "node", "id": 1978358503, "lat": 52.3531821, "lon": 4.8633455, "tags": {"name": "Valeriusplein", "public_transport": "stop_position", "railway": "tram_stop", "tram": "yes", "wheelchair": "yes", "wikidata": "Q111301511"}}, {"type": "node", "id": 1978358521, "lat": 52.3532989, "lon": 4.8636337, "tags": {"name": "Valeriusplein", "public_transport": "stop_position", "railway": "tram_stop", "tram": "yes", "wikidata": "Q111301511"}}, {"type": "node", "id": 1979187101, "lat": 52.3530108, "lon": 4.776554, "tags": {"name": "Pilatus", "public_transport": "stop_position", "railway": "tram_stop", "tram": "yes", "wikidata": "Q111291714"}}, {"type": "node", "id": 1979187198, "lat": 52.3504489, "lon": 4.7829483, "tags": {"name": "Inaristraat", "public_transport": "stop_position", "railway": "tram_stop", "tram": "yes", "wikidata": "Q111291716"}}, {"type": "node", "id": 2013949519, "lat": 52.3611749, "lon": 4.9336328, "tags": {"name": "Muiderpoortstation", "public_transport": "stop_position", "railway": "tram_stop", "ref:IFOPT": "NL:Q:30000007", "tram": "yes", "wheelchair": "yes"}}, {"type": "node", "id": 2020414930, "lat": 52.3879696, "lon": 4.8392172, "tags": {"name": "Station Sloterdijk", "public_transport": "stop_position", "railway": "tram_stop", "ref:IFOPT": "NL:Q:30002362", "tram": "yes", "wikidata": "Q111422381"}}, {"type": "node", "id": 2020614094, "lat": 52.3673632, "lon": 4.8725518, "tags": {"name": "Bilderdijkstraat", "public_transport": "stop_position", "railway": "tram_stop", "tram": "yes", "wikidata": "Q111307979"}}, {"type": "node", "id": 2300172831, "lat": 52.3742782, "lon": 4.8763837, "tags": {"name": "Bloemgracht", "public_transport": "stop_position", "railway": "tram_stop", "tram": "yes", "wikidata": "Q111364864"}}, {"type": "node", "id": 2303104508, "lat": 52.3670831, "lon": 4.8722954, "tags": {"highway": "bus_stop", "name": "Kinkerstraat", "public_transport": "stop_position", "railway": "tram_stop", "tram": "yes", "wheelchair": "yes", "wikidata": "Q111307979"}}, {"type": "node", "id": 2316881859, "lat": 52.3778058, "lon": 4.9003434, "tags": {"name": "Centraal Station", "name:de": "Hauptbahnhof", "name:nl": "Centraal Station", "public_transport": "stop_position", "railway": "tram_stop", "ref": "A4", "tram": "yes", "wikidata": "Q21548886"}}, {"type": "node", "id": 2316881868, "lat": 52.3778505, "lon": 4.9003629, "tags": {"name": "Centraal Station", "name:de": "Hauptbahnhof", "public_transport": "stop_position", "railway": "tram_stop", "ref": "A3", "tram": "yes", "wikidata": "Q21548886"}}, {"type": "node", "id": 2421932411, "lat": 52.3803006, "lon": 4.8552771, "tags": {"name": "Bos en Lommerweg", "public_transport": "stop_position", "railway": "tram_stop", "tram": "yes", "wikidata": "Q111426980"}}, {"type": "node", "id": 2421932426, "lat": 52.3820439, "lon": 4.8522251, "tags": {"name": "Wiltzanghlaan", "public_transport": "stop_position", "railway": "tram_stop", "tram": "yes", "wikidata": "Q111426981"}}, {"type": "node", "id": 2672742552, "lat": 52.3748676, "lon": 4.8953791, "tags": {"name": "Dam", "public_transport": "stop_position", "railway": "tram_stop", "tram": "yes"}}, {"type": "node", "id": 2672749411, "lat": 52.3694572, "lon": 4.8921252, "tags": {"name": "Rokin", "old_name": "Spui", "public_transport": "stop_position", "railway": "tram_stop", "tram": "yes", "wikidata": "Q111343621"}}, {"type": "node", "id": 2672749474, "lat": 52.3697221, "lon": 4.892274, "tags": {"name": "Rokin", "old_name": "Spui", "public_transport": "stop_position", "railway": "tram_stop", "tram": "yes", "wikidata": "Q111343621"}}, {"type": "node", "id": 2672987276, "lat": 52.3662601, "lon": 4.8964238, "tags": {"name": "Rembrandtplein", "name:de": "Rembrandtplatz", "network": "Stadsvervoer Amsterdam", "network:wikidata": "Q108742702", "operator": "GVB", "operator:wikidata": "Q1808041", "public_transport": "stop_position", "railway": "tram_stop", "tram": "yes", "wheelchair": "yes", "wikidata": "Q111343619"}}, {"type": "node", "id": 2672987288, "lat": 52.3671715, "lon": 4.9022284, "tags": {"name": "Waterlooplein", "name:de": "Waterlooplatz", "public_transport": "stop_position", "railway": "tram_stop", "tram": "yes", "wikidata": "Q111397560"}}, {"type": "node", "id": 2673071058, "lat": 52.3600132, "lon": 4.8910303, "tags": {"name": "Vijzelgracht", "old_name": "Weteringcircuit", "public_transport": "stop_position", "railway": "tram_stop", "tram": "yes", "wheelchair": "yes", "wikidata": "Q111286557"}}, {"type": "node", "id": 2673071064, "lat": 52.3677535, "lon": 4.9058474, "tags": {"name": "Meester Visserplein", "public_transport": "stop_position", "railway": "tram_stop", "tram": "yes", "wheelchair": "yes", "wikidata": "Q111397558"}}, {"type": "node", "id": 2673071086, "lat": 52.3665623, "lon": 4.9113237, "tags": {"name": "Artis", "public_transport": "stop_position", "railway": "tram_stop", "tram": "yes", "wikidata": "Q111397554"}}, {"type": "node", "id": 2673087141, "lat": 52.3637916, "lon": 4.8982915, "tags": {"name": "Keizersgracht", "public_transport": "stop_position", "railway": "tram_stop", "tram": "yes", "wheelchair": "yes", "wikidata": "Q111343615"}}, {"type": "node", "id": 2673087152, "lat": 52.3590024, "lon": 4.8989049, "tags": {"name": "Frederiksplein", "public_transport": "stop_position", "railway": "tram_stop", "tram": "yes", "wheelchair": "yes", "wikidata": "Q111286556"}}, {"type": "node", "id": 2673087196, "lat": 52.3550346, "lon": 4.9010669, "tags": {"name": "Ceintuurbaan", "public_transport": "stop_position", "railway": "tram_stop", "tram": "yes", "wheelchair": "yes", "wikidata": "Q111318135"}}, {"type": "node", "id": 2673087253, "lat": 52.3514501, "lon": 4.90332, "tags": {"name": "Lutmastraat", "public_transport": "stop_position", "railway": "tram_stop", "tram": "yes", "wikidata": "Q111336158"}}, {"type": "node", "id": 2673092648, "lat": 52.3465873, "lon": 4.9051006, "tags": {"name": "Victorieplein", "public_transport": "stop_position", "railway": "tram_stop", "ref:IFOPT": "NL:Q:30009048", "tram": "yes", "wheelchair": "limited", "wikidata": "Q111335849"}}, {"type": "node", "id": 2673092651, "lat": 52.3487259, "lon": 4.9043407, "tags": {"name": "Amstelkade", "public_transport": "stop_position", "railway": "tram_stop", "tram": "yes", "wheelchair": "limited", "wikidata": "Q111336160"}}, {"type": "node", "id": 2674521917, "lat": 52.3651045, "lon": 4.9155317, "tags": {"name": "Plantage Lepellaan", "note": "halte tijdelijk buiten gebruik", "public_transport": "stop_position", "railway": "tram_stop", "tram": "yes", "wikidata": "Q111397557"}}, {"type": "node", "id": 2674521942, "lat": 52.3634343, "lon": 4.9196097, "tags": {"name": "Alexanderplein", "public_transport": "stop_position", "railway": "tram_stop", "tram": "yes", "wikidata": "Q111376243"}}, {"type": "node", "id": 2674521943, "lat": 52.3652225, "lon": 4.9152768, "tags": {"name": "Plantage Lepellaan", "public_transport": "stop_position", "railway": "tram_stop", "tram": "yes", "wikidata": "Q111397557"}}, {"type": "node", "id": 2674521954, "lat": 52.3621936, "lon": 4.9238286, "tags": {"name": "Eerste Van Swindenstraat", "public_transport": "stop_position", "railway": "tram_stop", "tram": "yes", "wheelchair": "yes", "wikidata": "Q111434596"}}, {"type": "node", "id": 2674521961, "lat": 52.361616, "lon": 4.9241559, "tags": {"name": "Eerste Van Swindenstraat", "public_transport": "stop_position", "railway": "tram_stop", "tram": "yes", "wheelchair": "yes", "wikidata": "Q111434596"}}, {"type": "node", "id": 2674521970, "lat": 52.360259, "lon": 4.9250867, "tags": {"name": "Wijttenbachstraat", "public_transport": "stop_position", "railway": "tram_stop", "tram": "yes", "wheelchair": "limited", "wikidata": "Q111284676"}}, {"type": "node", "id": 2674521976, "lat": 52.3574383, "lon": 4.9269018, "tags": {"name": "Oostpoort", "old_name": "Pretoriusstraat", "public_transport": "stop_position", "railway": "tram_stop", "tram": "yes", "wheelchair": "yes", "wikidata": "Q111434587"}}, {"type": "node", "id": 2674538480, "lat": 52.33957, "lon": 4.9546574, "tags": {"name": "Arent Krijtsstraat", "public_transport": "stop_position", "railway": "tram_stop", "tram": "yes", "wikidata": "Q111434568"}}, {"type": "node", "id": 2674543283, "lat": 52.351066, "lon": 4.934801, "tags": {"name": "Hugo de Vrieslaan", "public_transport": "stop_position", "railway": "tram_stop", "tram": "yes", "wheelchair": "yes", "wikidata": "Q111434572", "zone": "5715"}}, {"type": "node", "id": 2674543285, "lat": 52.3476135, "lon": 4.9404536, "tags": {"name": "Kruislaan", "public_transport": "stop_position", "railway": "tram_stop", "tram": "yes"}}, {"type": "node", "id": 2674543286, "lat": 52.3428971, "lon": 4.9478959, "tags": {"name": "Brinkstraat", "public_transport": "stop_position", "railway": "tram_stop", "tram": "yes", "wikidata": "Q111434569"}}, {"type": "node", "id": 2674767992, "lat": 52.3772761, "lon": 4.912547, "tags": {"name": "Muziekgebouw", "public_transport": "stop_position", "railway": "tram_stop", "ref:IFOPT": "NL:Q:30008235", "tram": "yes", "wheelchair": "yes", "wikidata": "Q111458110"}}, {"type": "node", "id": 2674855304, "lat": 52.3729896, "lon": 4.9340409, "tags": {"name": "Rietlandpark", "public_transport": "stop_position", "railway": "tram_stop", "ref:IFOPT": "NL:Q:30008239", "tram": "yes", "wheelchair": "yes", "wikidata": "Q111378177"}}, {"type": "node", "id": 2674855327, "lat": 52.3719706, "lon": 4.9616739, "tags": {"name": "Zuiderzeeweg", "public_transport": "stop_position", "railway": "tram_stop", "ref:IFOPT": "NL:Q:30008241", "tram": "yes", "wikidata": "Q111458125"}}, {"type": "node", "id": 2674999726, "lat": 52.368085, "lon": 4.8889206, "tags": {"name": "Koningsplein", "public_transport": "stop_position", "railway": "tram_stop", "tram": "yes", "wheelchair": "yes", "wikidata": "Q111305179"}}, {"type": "node", "id": 2677256520, "lat": 52.369133, "lon": 4.968548, "tags": {"name": "Bob Haarmslaan", "public_transport": "stop_position", "railway": "tram_stop", "ref:IFOPT": "NL:Q:30008007", "tram": "yes", "wikidata": "Q111458127"}}, {"type": "node", "id": 2677256600, "lat": 52.3555154, "lon": 4.9946247, "tags": {"name": "Diemerparklaan", "public_transport": "stop_position", "railway": "tram_stop", "tram": "yes", "wheelchair": "yes", "wikidata": "Q111458130"}}, {"type": "node", "id": 2678427768, "lat": 52.3761672, "lon": 4.9211099, "tags": {"name": "Kattenburgerstraat", "public_transport": "stop_position", "railway": "tram_stop", "ref:IFOPT": "NL:Q:30008237", "tram": "yes", "wheelchair": "yes", "wikidata": "Q111458111"}}, {"type": "node", "id": 2678427769, "lat": 52.3549103, "lon": 4.9958806, "tags": {"name": "Diemerparklaan", "public_transport": "stop_position", "railway": "tram_stop", "tram": "yes", "wheelchair": "yes", "wikidata": "Q111458130"}}, {"type": "node", "id": 2678427770, "lat": 52.3525961, "lon": 5.0002302, "tags": {"name": "Lumi\u00e8restraat", "public_transport": "stop_position", "railway": "tram_stop", "tram": "yes", "wikidata": "Q111458133"}}, {"type": "node", "id": 2678427771, "lat": 52.3531807, "lon": 4.9990167, "tags": {"name": "Lumi\u00e8restraat", "public_transport": "stop_position", "railway": "tram_stop", "tram": "yes", "wheelchair": "yes", "wikidata": "Q111458133"}}, {"type": "node", "id": 2763733921, "lat": 52.3744189, "lon": 4.876516, "tags": {"bus": "yes", "name": "Bloemgracht", "public_transport": "stop_position", "railway": "tram_stop", "tram": "yes", "wikidata": "Q111364864"}}, {"type": "node", "id": 2941113425, "lat": 52.3858895, "lon": 4.8461556, "tags": {"name": "Molenwerf", "public_transport": "stop_position", "railway": "tram_stop", "tram": "yes", "wheelchair": "limited", "wikidata": "Q111426984"}}, {"type": "node", "id": 2987217066, "lat": 52.3640547, "lon": 4.9385662, "tags": {"name": "Javaplein", "network": "Stadsvervoer Amsterdam", "network:wikidata": "Q108742702", "operator": "GVB", "operator:wikidata": "Q1808041", "public_transport": "stop_position", "railway": "tram_stop", "shelter": "yes", "tram": "yes", "wikidata": "Q111396601"}}, {"type": "node", "id": 2987217067, "lat": 52.3641725, "lon": 4.9382411, "tags": {"name": "Javaplein", "network": "Stadsvervoer Amsterdam", "network:wikidata": "Q108742702", "operator": "GVB", "operator:wikidata": "Q1808041", "public_transport": "stop_position", "railway": "tram_stop", "tram": "yes", "wheelchair": "yes", "wikidata": "Q111396601"}}, {"type": "node", "id": 3011895788, "lat": 52.3734596, "lon": 4.9381702, "tags": {"name": "C. van Eesterenlaan", "public_transport": "stop_position", "railway": "tram_stop", "ref:IFOPT": "NL:Q:30008233", "tram": "yes", "wheelchair": "yes", "wikidata": "Q111378178"}}, {"type": "node", "id": 3078329917, "lat": 52.3713049, "lon": 4.9634834, "tags": {"public_transport": "stop_position", "railway": "tram_stop", "tram": "yes"}}, {"type": "node", "id": 3078345542, "lat": 52.3627073, "lon": 4.9810143, "tags": {"name": "Steigereiland", "public_transport": "stop_position", "railway": "tram_stop", "tram": "yes", "wheelchair": "yes", "wikidata": "Q111458128"}}, {"type": "node", "id": 3078345543, "lat": 52.3632345, "lon": 4.9799507, "tags": {"name": "Steigereiland", "public_transport": "stop_position", "railway": "tram_stop", "tram": "yes", "wheelchair": "yes", "wikidata": "Q111458128"}}, {"type": "node", "id": 3157939509, "lat": 52.3723569, "lon": 4.8906536, "tags": {"name": "Paleisstraat", "public_transport": "stop_position", "railway": "tram_stop", "tram": "yes", "wikidata": "Q111305178"}}, {"type": "node", "id": 3178067303, "lat": 52.3662292, "lon": 4.8968199, "tags": {"name": "Rembrandtplein", "name:de": "Rembrandtplatz", "public_transport": "stop_position", "railway": "tram_stop", "tram": "yes", "wheelchair": "yes", "wikidata": "Q111343619"}}, {"type": "node", "id": 3185290417, "lat": 52.3718196, "lon": 4.875944, "tags": {"local_ref": "10", "name": "Rozengracht", "operator": "#19 from/to P+R Sloterdijk", "public_transport": "stop_position", "railway": "tram_stop", "route_ref": "10;80", "tram": "yes", "wheelchair": "limited", "wikidata": "Q111364863", "zone": "5700"}}, {"type": "node", "id": 3185460780, "lat": 52.3720538, "lon": 4.8752838, "tags": {"name": "Marnixstraat", "public_transport": "stop_position", "railway": "tram_stop", "tram": "yes", "wheelchair": "yes", "wikidata": "Q111364863"}}, {"type": "node", "id": 3294629035, "lat": 52.3545776, "lon": 4.9014422, "tags": {"name": "Ceintuurbaan", "public_transport": "stop_position", "railway": "tram_stop", "tram": "yes", "wheelchair": "no", "wikidata": "Q111318135"}}, {"type": "node", "id": 3294629036, "lat": 52.341887, "lon": 4.893324, "tags": {"name": "Dintelstraat", "public_transport": "stop_position", "railway": "tram_stop", "ref:IFOPT": "NL:Q:30009001", "tram": "yes", "wikidata": "Q111335794"}}, {"type": "node", "id": 3294629037, "lat": 52.3404324, "lon": 4.8922816, "tags": {"name": "Europaplein", "public_transport": "stop_position", "railway": "tram_stop", "tram": "yes", "wikidata": "Q111335784"}}, {"type": "node", "id": 3294629038, "lat": 52.3369161, "lon": 4.8906393, "tags": {"name": "Station RAI", "public_transport": "stop_position", "railway": "tram_stop", "tram": "yes", "wikidata": "Q111334932"}}, {"type": "node", "id": 3294629045, "lat": 52.3362207, "lon": 4.889801, "tags": {"name": "Drentepark", "public_transport": "stop_position", "railway": "tram_stop", "tram": "yes", "wikidata": "Q111335707"}}, {"type": "node", "id": 3294945446, "lat": 52.3471037, "lon": 4.9111583, "tags": {"name": "Amsteldijk", "public_transport": "stop_position", "railway": "tram_stop", "ref:IFOPT": "NL:Q:30009139", "tram": "yes", "wikidata": "Q111382633"}}, {"type": "node", "id": 3294946408, "lat": 52.3704221, "lon": 4.8641586, "tags": {"name": "Willem de Zwijgerlaan", "public_transport": "stop_position", "railway": "tram_stop", "tram": "yes", "wheelchair": "yes", "wikidata": "Q111383639"}}, {"type": "node", "id": 3294946425, "lat": 52.3713902, "lon": 4.8604577, "tags": {"name": "Admiraal De Ruijterweg", "official_name": "Admiraal de Ruijterweg", "public_transport": "stop_position", "railway": "tram_stop", "tram": "yes", "wheelchair": "yes", "wikidata": "Q111383644"}}, {"type": "node", "id": 3294946637, "lat": 52.3674579, "lon": 4.8719933, "tags": {"name": "Kinkerstraat", "public_transport": "stop_position", "railway": "tram_stop", "tram": "yes", "wikidata": "Q111307979"}}, {"type": "node", "id": 3295383111, "lat": 52.3708243, "lon": 4.8698359, "tags": {"name": "Bilderdijkstraat", "public_transport": "stop_position", "railway": "tram_stop", "tram": "yes", "wheelchair": "yes", "wikidata": "Q111307980"}}, {"type": "node", "id": 3295383113, "lat": 52.3527058, "lon": 4.8905961, "tags": {"name": "De Pijp", "old_name": "Ferdinand Bolstraat", "public_transport": "stop_position", "railway": "tram_stop", "tram": "yes", "wikidata": "Q111318137"}}, {"type": "node", "id": 3295383114, "lat": 52.3630125, "lon": 4.8750893, "tags": {"alt_name": "Overtoom", "name": "Overtoom/ 1e C. Huygensstraat", "public_transport": "stop_position", "railway": "tram_stop", "tram": "yes", "wheelchair": "limited", "wikidata": "Q111291261"}}, {"type": "node", "id": 3295383115, "lat": 52.363227, "lon": 4.8749794, "tags": {"alt_name": "Overtoom", "name": "Overtoom/ 1e C. Huygensstraat", "public_transport": "stop_position", "railway": "tram_stop", "tram": "yes", "wheelchair": "limited", "wikidata": "Q111291261"}}, {"type": "node", "id": 3295383116, "lat": 52.3474774, "lon": 4.8911566, "tags": {"name": "Scheldestraat", "public_transport": "stop_position", "railway": "tram_stop", "ref:IFOPT": "NL:Q:30009074", "tram": "yes"}}, {"type": "node", "id": 3295383117, "lat": 52.3584538, "lon": 4.878318, "tags": {"name": "Van Baerlestraat", "public_transport": "stop_position", "railway": "tram_stop", "tram": "yes", "wikidata": "Q111307977", "wikidata_2": "Q111364720"}}, {"type": "node", "id": 3295383118, "lat": 52.3587793, "lon": 4.8781266, "tags": {"name": "Van Baerlestraat", "public_transport": "stop_position", "railway": "tram_stop", "tram": "yes", "wikidata": "Q111307977"}}, {"type": "node", "id": 3295383119, "lat": 52.3464278, "lon": 4.9063478, "tags": {"name": "Victorieplein", "public_transport": "stop_position", "railway": "tram_stop", "ref:IFOPT": "NL:Q:30009051", "tram": "yes", "wikidata": "Q111335849"}}, {"type": "node", "id": 3295582281, "lat": 52.3576998, "lon": 4.9905047, "tags": {"name": "Vennepluimstraat", "public_transport": "stop_position", "railway": "tram_stop", "tram": "yes", "wheelchair": "yes", "wikidata": "Q111458129"}}, {"type": "node", "id": 3296373457, "lat": 52.3509515, "lon": 4.7944986, "tags": {"name": "Baden Powellweg", "public_transport": "stop_position", "railway": "tram_stop", "tram": "yes", "wheelchair": "yes", "wikidata": "Q111291718"}}, {"type": "node", "id": 3296373458, "lat": 52.3496994, "lon": 4.7881565, "tags": {"name": "Ecuplein", "public_transport": "stop_position", "railway": "tram_stop", "tram": "yes", "wheelchair": "yes", "wikidata": "Q13575346"}}, {"type": "node", "id": 3296373460, "lat": 52.3577873, "lon": 4.8262383, "tags": {"name": "Johan Huizingalaan", "public_transport": "stop_position", "railway": "tram_stop", "tram": "yes", "wikidata": "Q111291722"}}, {"type": "node", "id": 3296373861, "lat": 52.3578123, "lon": 4.8258953, "tags": {"name": "Johan Huizingalaan", "public_transport": "stop_position", "railway": "tram_stop", "tram": "yes", "wikidata": "Q111291722"}}, {"type": "node", "id": 3296373862, "lat": 52.3659919, "lon": 4.8865383, "tags": {"name": "Keizersgracht", "public_transport": "stop_position", "railway": "tram_stop", "tram": "yes", "wheelchair": "yes", "wikidata": "Q111305180"}}, {"type": "node", "id": 3296373863, "lat": 52.3642233, "lon": 4.8829717, "tags": {"construction": "yes", "name": "Leidseplein", "network": "Stadsvervoer Amsterdam", "network:wikidata": "Q108742702", "operator": "GVB", "operator:wikidata": "Q1808041", "public_transport": "stop_position", "railway": "tram_stop", "tram": "yes", "wheelchair": "yes", "wikidata": "Q111291262"}}, {"type": "node", "id": 3296373864, "lat": 52.3538423, "lon": 4.8084929, "tags": {"name": "Louis Davidsstraat", "public_transport": "stop_position", "railway": "tram_stop", "tram": "yes", "wheelchair": "yes", "wikidata": "Q111291720"}}, {"type": "node", "id": 3296373865, "lat": 52.3538687, "lon": 4.7745043, "tags": {"name": "Matterhorn", "public_transport": "stop_position", "railway": "tram_stop", "tram": "yes", "wikidata": "Q111284159"}}, {"type": "node", "id": 3296373866, "lat": 52.35637, "lon": 4.8099119, "tags": {"name": "Meer en Vaart", "public_transport": "stop_position", "railway": "tram_stop", "tram": "yes", "wheelchair": "yes", "wikidata": "Q111291721"}}, {"type": "node", "id": 3296373869, "lat": 52.3650457, "lon": 4.8845404, "tags": {"name": "Prinsengracht", "public_transport": "stop_position", "railway": "tram_stop", "tram": "yes", "wheelchair": "yes", "wikidata": "Q111305181"}}, {"type": "node", "id": 3296373870, "lat": 52.3579004, "lon": 4.8337835, "tags": {"name": "Station Lelylaan", "public_transport": "stop_position", "railway": "tram_stop", "tram": "yes", "wheelchair": "yes", "wikidata": "Q111291723"}}, {"type": "node", "id": 3296374053, "lat": 52.3586176, "lon": 4.8506975, "tags": {"name": "Curacaostraat", "public_transport": "stop_position", "railway": "tram_stop", "tram": "yes"}}, {"type": "node", "id": 3296687013, "lat": 52.3559987, "lon": 4.8705851, "tags": {"name": "Cornelis Schuytstraat", "public_transport": "stop_position", "railway": "tram_stop", "tram": "yes", "wikidata": "Q111301510"}}, {"type": "node", "id": 3296687016, "lat": 52.3462812, "lon": 4.8105405, "tags": {"name": "Centrum Nieuw Sloten", "public_transport": "stop_position", "railway": "tram_stop", "tram": "yes", "wheelchair": "yes", "wikidata": "Q111295869"}}, {"type": "node", "id": 3296687017, "lat": 52.346707, "lon": 4.8250738, "tags": {"name": "Louwesweg", "public_transport": "stop_position", "railway": "tram_stop", "tram": "yes", "wikidata": "Q111295872"}}, {"type": "node", "id": 3297465110, "lat": 52.3816379, "lon": 4.88118, "tags": {"name": "Nieuwe Willemstraat", "public_transport": "stop_position", "railway": "tram_stop", "tram": "yes", "wikidata": "Q111364868"}}, {"type": "node", "id": 3297544662, "lat": 52.3786007, "lon": 4.8754111, "tags": {"name": "Frederik Hendrikplantsoen", "public_transport": "stop_position", "railway": "tram_stop", "tram": "yes", "wikidata": "Q111307093"}}, {"type": "node", "id": 3297544663, "lat": 52.3531905, "lon": 4.8942153, "tags": {"name": "Tweede Van der Helststraat", "public_transport": "stop_position", "railway": "tram_stop", "tram": "yes", "wheelchair": "yes", "wikidata": "Q111318136"}}, {"type": "node", "id": 3298959766, "lat": 52.3582391, "lon": 4.9172481, "tags": {"name": "Beukenweg", "public_transport": "stop_position", "railway": "tram_stop", "tram": "yes", "wheelchair": "yes", "wikidata": "Q111286553"}}, {"type": "node", "id": 3299908038, "lat": 52.3607965, "lon": 4.9326128, "tags": {"name": "Muiderpoortstation", "public_transport": "stop_position", "railway": "tram_stop", "ref:IFOPT": "NL:Q:30000441", "tram": "yes", "wheelchair": "yes"}}, {"type": "node", "id": 3299908039, "lat": 52.3583909, "lon": 4.9137826, "tags": {"name": "Camperstraat", "public_transport": "stop_position", "railway": "tram_stop", "tram": "yes", "wheelchair": "yes", "wikidata": "Q111318133"}}, {"type": "node", "id": 3299908040, "lat": 52.3610986, "lon": 4.9297575, "tags": {"name": "Dapperstraat", "public_transport": "stop_position", "railway": "tram_stop", "ref:IFOPT": "NL:Q:30000008", "tram": "yes", "wikidata": "Q111284637"}}, {"type": "node", "id": 3299908041, "lat": 52.3599165, "lon": 4.9249118, "tags": {"name": "Linnaeusstraat", "public_transport": "stop_position", "railway": "tram_stop", "tram": "yes", "wheelchair": "limited", "wikidata": "Q111284676"}}, {"type": "node", "id": 3300150225, "lat": 52.346674, "lon": 4.8768645, "tags": {"bus": "yes", "name": "Stadionweg", "public_transport": "stop_position", "railway": "tram_stop", "ref:IFOPT": "NL:Q:30007088", "tram": "yes", "wikidata": "Q111364717"}}, {"type": "node", "id": 3300150226, "lat": 52.3471425, "lon": 4.8768834, "tags": {"name": "Stadionweg", "public_transport": "stop_position", "railway": "tram_stop", "ref:IFOPT": "NL:Q:30007087", "tram": "yes", "wikidata": "Q111364717"}}, {"type": "node", "id": 3300150230, "lat": 52.3431074, "lon": 4.8767749, "tags": {"name": "Prinses Irenestraat", "public_transport": "stop_position", "railway": "tram_stop", "ref:IFOPT": "NL:Q:30007187", "tram": "yes", "wikidata": "Q111364716"}}, {"type": "node", "id": 3300514038, "lat": 52.3647872, "lon": 4.8586095, "tags": {"name": "Witte de Withstraat", "public_transport": "stop_position", "railway": "tram_stop", "tram": "yes", "wikidata": "Q111375699"}}, {"type": "node", "id": 3300515588, "lat": 52.3729826, "lon": 4.8487242, "tags": {"name": "Jan van Galenstraat", "public_transport": "stop_position", "railway": "tram_stop", "tram": "yes", "wheelchair": "yes", "wikidata": "Q111375708"}}, {"type": "node", "id": 3301289966, "lat": 52.3633708, "lon": 4.9185684, "tags": {"name": "Alexanderplein", "public_transport": "stop_position", "railway": "tram_stop", "tram": "yes", "wikidata": "Q111376243"}}, {"type": "node", "id": 3303180661, "lat": 52.3652467, "lon": 4.9510568, "tags": {"name": "Flevopark", "public_transport": "stop_position", "railway": "tram_stop", "tram": "yes", "wikidata": "Q111305420"}}, {"type": "node", "id": 3303180662, "lat": 52.3594109, "lon": 4.8978483, "tags": {"name": "Frederiksplein", "public_transport": "stop_position", "railway": "tram_stop", "tram": "yes", "wikidata": "Q111286556"}}, {"type": "node", "id": 3303180663, "lat": 52.3649431, "lon": 4.9478662, "tags": {"name": "Insulindeweg", "public_transport": "stop_position", "railway": "tram_stop", "tram": "yes", "wikidata": "Q111318131"}}, {"type": "node", "id": 3303180666, "lat": 52.3621442, "lon": 4.9433884, "tags": {"name": "Soembawastraat", "public_transport": "stop_position", "railway": "tram_stop", "tram": "yes", "wikidata": "Q111318132"}}, {"type": "node", "id": 3303180667, "lat": 52.3612917, "lon": 4.8863802, "tags": {"alt_name": "Spiegelgracht", "name": "Rijksmuseum", "public_transport": "stop_position", "railway": "tram_stop", "tram": "yes", "wheelchair": "no", "wikidata": "Q111291263"}}, {"type": "node", "id": 3306176726, "lat": 52.3683184, "lon": 4.9265233, "tags": {"name": "Eerste Coehoornstraat", "public_transport": "stop_position", "railway": "tram_stop", "toilets:wheelchair": "no", "tram": "yes", "wheelchair": "yes", "wikidata": "Q111378174"}}, {"type": "node", "id": 3306176727, "lat": 52.3701978, "lon": 4.9295997, "tags": {"name": "Eerste Leeghwaterstraat", "public_transport": "stop_position", "railway": "tram_stop", "tram": "yes", "wheelchair": "limited", "wikidata": "Q111378176"}}, {"type": "node", "id": 3306176728, "lat": 52.3666491, "lon": 4.9242477, "tags": {"name": "Hoogte Kadijk", "public_transport": "stop_position", "railway": "tram_stop", "tram": "yes", "wheelchair": "limited", "wikidata": "Q111378172"}}, {"type": "node", "id": 3306176729, "lat": 52.372928, "lon": 4.9344011, "tags": {"name": "Rietlandpark", "public_transport": "stop_position", "railway": "tram_stop", "ref:IFOPT": "NL:Q:30008260", "tram": "yes", "wheelchair": "yes", "wikidata": "Q111378177"}}, {"type": "node", "id": 3306416869, "lat": 52.3831444, "lon": 4.877086, "tags": {"name": "De Wittenkade", "public_transport": "stop_position", "railway": "tram_stop", "tram": "yes", "wikidata": "Q111307091"}}, {"type": "node", "id": 3306416870, "lat": 52.3810685, "lon": 4.8791525, "tags": {"name": "Nassaukade", "public_transport": "stop_position", "railway": "tram_stop", "tram": "yes", "wikidata": "Q111307092"}}, {"type": "node", "id": 3306416871, "lat": 52.3842946, "lon": 4.8751351, "tags": {"name": "Van Limburg Stirumplein", "public_transport": "stop_position", "railway": "tram_stop", "tram": "yes", "wheelchair": "limited", "wikidata": "Q111307089"}}, {"type": "node", "id": 3306520722, "lat": 52.3694429, "lon": 4.8438216, "tags": {"name": "Admiraal Helfrichstraat", "public_transport": "stop_position", "railway": "tram_stop", "tram": "yes", "wikidata": "Q111396097"}}, {"type": "node", "id": 3306520723, "lat": 52.3765095, "lon": 4.8117554, "tags": {"name": "Burgemeester Van Leeuwenlaan", "public_transport": "stop_position", "railway": "tram_stop", "tram": "yes", "wikidata": "Q111396104"}}, {"type": "node", "id": 3306520724, "lat": 52.3769374, "lon": 4.8065746, "tags": {"name": "Doctor H. Colijnstraat", "official_name": "Dr. H. Colijnstraat", "public_transport": "stop_position", "railway": "tram_stop", "tram": "yes"}}, {"type": "node", "id": 3306520725, "lat": 52.3714267, "lon": 4.838103, "tags": {"name": "Jan Tooropstraat", "public_transport": "stop_position", "railway": "tram_stop", "tram": "yes", "wikidata": "Q111396099"}}, {"type": "node", "id": 3306520726, "lat": 52.3697121, "lon": 4.8378389, "tags": {"name": "Jan Voermanstraat", "public_transport": "stop_position", "railway": "tram_stop", "tram": "yes", "wikidata": "Q111396111"}}, {"type": "node", "id": 3306520727, "lat": 52.3732337, "lon": 4.8350051, "tags": {"name": "Jan van Galenstraat", "public_transport": "stop_position", "railway": "tram_stop", "tram": "yes", "wikidata": "Q111396101"}}, {"type": "node", "id": 3306520728, "lat": 52.3702349, "lon": 4.8514871, "tags": {"name": "Mercatorplein", "public_transport": "stop_position", "railway": "tram_stop", "tram": "yes", "wikidata": "Q111375707"}}, {"type": "node", "id": 3307084740, "lat": 52.3659034, "lon": 4.9275974, "tags": {"name": "Pontanusstraat", "public_transport": "stop_position", "railway": "tram_stop", "tram": "yes", "wikidata": "Q111396595"}}, {"type": "node", "id": 3307084741, "lat": 52.3658298, "lon": 4.9325902, "tags": {"name": "Zeeburgerdijk", "public_transport": "stop_position", "railway": "tram_stop", "tram": "yes", "wikidata": "Q111396598"}}, {"type": "node", "id": 3307343461, "lat": 52.3351971, "lon": 4.8663865, "tags": {"name": "De Boelelaan/VU", "public_transport": "stop_position", "railway": "tram_stop", "ref:IFOPT": "NL:Q:30007005", "tram": "yes", "wikidata": "Q111442491"}}, {"type": "node", "id": 3307343462, "lat": 52.3490455, "lon": 4.8575004, "tags": {"name": "Haarlemmermeerstation", "public_transport": "stop_position", "railway": "tram_stop", "tram": "yes"}}, {"type": "node", "id": 3307636848, "lat": 52.3565018, "lon": 4.7917476, "tags": {"name": "Baden Powellweg", "public_transport": "stop_position", "railway": "tram_stop", "tram": "yes", "wikidata": "Q111419283"}}, {"type": "node", "id": 3307636849, "lat": 52.3615937, "lon": 4.853247, "tags": {"name": "Corantijnstraat", "public_transport": "stop_position", "railway": "tram_stop", "tram": "yes", "wikidata": "Q111419293"}}, {"type": "node", "id": 3307636850, "lat": 52.3580819, "lon": 4.7995669, "tags": {"name": "Hoekenes", "public_transport": "stop_position", "railway": "tram_stop", "tram": "yes", "wikidata": "Q111419285"}}, {"type": "node", "id": 3307636851, "lat": 52.3595388, "lon": 4.8032041, "tags": {"name": "Osdorpplein West", "public_transport": "stop_position", "railway": "tram_stop", "tram": "yes", "wikidata": "Q111419287"}}, {"type": "node", "id": 3307636852, "lat": 52.3638557, "lon": 4.8531487, "tags": {"name": "Postjesweg", "public_transport": "stop_position", "railway": "tram_stop", "tram": "yes", "wikidata": "Q111375703"}}, {"type": "node", "id": 3307636853, "lat": 52.358636, "lon": 4.8080582, "tags": {"name": "Osdorpplein Oost", "public_transport": "stop_position", "railway": "tram_stop", "tram": "yes", "wheelchair": "yes", "wikidata": "Q111419289"}}, {"type": "node", "id": 3307702376, "lat": 52.346695, "lon": 4.8720137, "tags": {"name": "Minervaplein", "public_transport": "stop_position", "railway": "tram_stop", "ref:IFOPT": "NL:Q:30007094", "tram": "yes", "wikidata": "Q111442481"}}, {"type": "node", "id": 3307702377, "lat": 52.3463735, "lon": 4.8666421, "tags": {"name": "Olympiaplein", "public_transport": "stop_position", "railway": "tram_stop", "ref:IFOPT": "NL:Q:30007098", "tram": "yes", "wikidata": "Q111442482"}}, {"type": "node", "id": 3307702378, "lat": 52.3452686, "lon": 4.8586416, "tags": {"name": "Olympiaweg", "public_transport": "stop_position", "railway": "tram_stop", "ref:IFOPT": "NL:Q:30007108", "tram": "yes", "wheelchair": "limited", "wikidata": "Q111442483"}}, {"type": "node", "id": 3307835922, "lat": 52.3763312, "lon": 4.8469734, "tags": {"name": "Erasmusgracht", "public_transport": "stop_position", "railway": "tram_stop", "tram": "yes", "wikidata": "Q111375709"}}, {"type": "node", "id": 3307835927, "lat": 52.3669952, "lon": 4.852596, "tags": {"name": "W. Schoutenstraat", "public_transport": "stop_position", "railway": "tram_stop", "tram": "yes", "wikidata": "Q111375704"}}, {"type": "node", "id": 3307835928, "lat": 52.3673886, "lon": 4.8523612, "tags": {"name": "W. Schoutenstraat", "public_transport": "stop_position", "railway": "tram_stop", "tram": "yes", "wikidata": "Q111375704"}}, {"type": "node", "id": 3308281969, "lat": 52.2961484, "lon": 4.8674156, "tags": {"name": "Ouderkerkerlaan", "public_transport": "stop_position", "railway": "tram_stop", "tram": "yes", "wheelchair": "yes", "wikidata": "Q2739727", "wikipedia": "nl:Ouderkerkerlaan (tramhalte)"}}, {"type": "node", "id": 3308281970, "lat": 52.2825723, "lon": 4.8327699, "tags": {"name": "Sacharovlaan", "public_transport": "stop_position", "railway": "tram_stop", "tram": "yes", "wheelchair": "yes", "wikidata": "Q2218736", "wikipedia": "nl:Sacharovlaan (tramhalte)"}}, {"type": "node", "id": 3308281975, "lat": 52.2743532, "lon": 4.8305377, "tags": {"name": "Westwijk", "public_transport": "stop_position", "railway": "tram_stop", "tram": "yes", "wikidata": "Q2044925", "wikipedia": "nl:Westwijk (tramhalte)"}}, {"type": "node", "id": 3371092710, "lat": 52.3515947, "lon": 4.8450157, "tags": {"bus": "yes", "name": "Westlandgracht", "public_transport": "stop_position", "railway": "tram_stop", "tram": "yes", "wikidata": "Q111295881"}}, {"type": "node", "id": 3561192480, "lat": 52.3212772, "lon": 4.8692545, "tags": {"name": "Uilenstede", "public_transport": "stop_position", "railway": "tram_stop", "tram": "yes", "website": "https://9292.nl/en/amstelveen/tramhalte-uilenstede", "wheelchair": "yes", "wikidata": "Q2457557", "wikimedia_commons": "File:Metro 51 on the Uilenstede stop..jpg", "wikipedia": "nl:Uilenstede (tramhalte)"}}, {"type": "node", "id": 3735469931, "lat": 52.3691619, "lon": 4.9685823, "tags": {"name": "Bob Haarmslaan", "public_transport": "stop_position", "railway": "tram_stop", "ref:IFOPT": "NL:Q:30008009", "tram": "yes", "wikidata": "Q111458127"}}, {"type": "node", "id": 4103562362, "lat": 52.3325431, "lon": 4.8688168, "tags": {"name": "A. J. Ernststraat", "public_transport": "stop_position", "railway": "tram_stop", "tram": "yes", "wheelchair": "yes", "wikidata": "Q2313853", "wikipedia": "nl:A.J. Ernststraat (tramhalte)"}}, {"type": "node", "id": 4103562364, "lat": 52.3013177, "lon": 4.8671267, "tags": {"name": "Amstelveen Stadshart", "public_transport": "stop_position", "railway": "tram_stop", "tram": "yes", "wikidata": "Q111345412", "wikimedia_commons": "Category:Amstelveen Stadshart (tramhalte)"}}, {"type": "node", "id": 4103562365, "lat": 52.3013453, "lon": 4.867149, "tags": {"name": "Amstelveen Stadshart", "public_transport": "stop_position", "railway": "tram_stop", "tram": "yes", "wikidata": "Q111345412", "wikimedia_commons": "Category:Amstelveen Stadshart (tramhalte)"}}, {"type": "node", "id": 4103562373, "lat": 52.3079604, "lon": 4.8724478, "tags": {"name": "Onderuit", "public_transport": "stop_position", "railway": "tram_stop", "tram": "yes", "wikidata": "Q13922931", "wikipedia": "nl:Onderuit (tramhalte)"}}, {"type": "node", "id": 4103562375, "lat": 52.3080875, "lon": 4.8725929, "tags": {"name": "Onderuit", "public_transport": "stop_position", "railway": "tram_stop", "tram": "yes", "wikidata": "Q13922931", "wikipedia": "nl:Onderuit (tramhalte)"}}, {"type": "node", "id": 4103567889, "lat": 52.3248972, "lon": 4.8690319, "tags": {"name": "Van Boshuizenstraat", "public_transport": "stop_position", "railway": "tram_stop", "tram": "yes", "wikidata": "Q2637401", "wikipedia": "nl:Van Boshuizenstraat (tramhalte)"}}, {"type": "node", "id": 4103567892, "lat": 52.3121859, "lon": 4.8722618, "tags": {"name": "Zonnestein", "public_transport": "stop_position", "railway": "tram_stop", "tram": "yes", "wikidata": "Q3079905", "wikipedia": "nl:Zonnestein (verkeersplein)"}}, {"type": "node", "id": 4249280290, "lat": 52.3156718, "lon": 4.855406, "tags": {"name": "Amsterdamseweg", "public_transport": "stop_position", "railway": "tram_stop", "tram": "yes"}}, {"type": "node", "id": 4249280292, "lat": 52.3493132, "lon": 4.8562313, "tags": {"name": "Haarlemmermeerstation", "public_transport": "stop_position", "railway": "tram_stop", "tram": "yes"}}, {"type": "node", "id": 4249280294, "lat": 52.3352719, "lon": 4.8543795, "tags": {"name": "Jollenpad", "public_transport": "stop_position", "railway": "tram_stop", "tram": "yes"}}, {"type": "node", "id": 4249280297, "lat": 52.3305598, "lon": 4.8560952, "tags": {"name": "Koenenkade", "public_transport": "stop_position", "railway": "tram_stop", "tram": "yes"}}, {"type": "node", "id": 4249280298, "lat": 52.292425, "lon": 4.8403296, "tags": {"name": "Noorddammerlaan", "public_transport": "stop_position", "railway": "tram_stop", "tram": "yes", "wheelchair": "no"}}, {"type": "node", "id": 4519556579, "lat": 52.3218182, "lon": 4.8565037, "tags": {"name": "Kalfjeslaan", "public_transport": "stop_position", "railway": "tram_stop", "tram": "yes"}}, {"type": "node", "id": 4541648287, "lat": 52.3858579, "lon": 4.8465973, "tags": {"name": "Molenwerf", "public_transport": "stop_position", "railway": "tram_stop", "tram": "yes", "wheelchair": "limited", "wikidata": "Q111426984"}}, {"type": "node", "id": 4621136127, "lat": 52.357015, "lon": 4.9272548, "tags": {"bench": "yes", "bin": "yes", "bus": "yes", "highway": "bus_stop", "name": "Oostpoort", "old_name": "Pretoriusstraat", "public_transport": "platform", "railway": "tram_stop", "ref:IFOPT": "NL:Q:30000029", "shelter": "yes", "tactile_paving": "no", "tram": "yes", "wheelchair": "yes", "wikidata": "Q111434587", "zone": "5715"}}, {"type": "node", "id": 4621705536, "lat": 52.3574304, "lon": 4.9268761, "tags": {"bench": "yes", "bin": "yes", "bus": "yes", "highway": "bus_stop", "name": "Oostpoort", "old_name": "Pretoriusstraat", "public_transport": "platform", "railway": "tram_stop", "ref:IFOPT": "NL:Q:30000030", "shelter": "yes", "tram": "yes", "wheelchair": "yes", "wikidata": "Q111434587", "zone": "5715"}}, {"type": "node", "id": 4851477406, "lat": 52.3526769, "lon": 4.8901771, "tags": {"name": "De Pijp", "old_name": "Ferdinand Bolstraat", "public_transport": "stop_position", "railway": "tram_stop", "tram": "yes", "wikidata": "Q111318137"}}, {"type": "node", "id": 4851477407, "lat": 52.3570037, "lon": 4.8907033, "tags": {"name": "Marie Heinekenplein", "public_transport": "stop_position", "railway": "tram_stop", "tram": "yes", "wheelchair": "yes", "wikidata": "Q111442647"}}, {"type": "node", "id": 4851477410, "lat": 52.3662653, "lon": 4.8931342, "tags": {"name": "Muntplein", "public_transport": "stop_position", "railway": "tram_stop", "tram": "yes", "wheelchair": "yes", "wikidata": "Q111442480"}}, {"type": "node", "id": 4851478923, "lat": 52.3659135, "lon": 4.8930838, "tags": {"name": "Muntplein", "public_transport": "stop_position", "railway": "tram_stop", "tactile_paving": "yes", "tram": "yes", "wheelchair": "yes", "wikidata": "Q111442480"}}, {"type": "node", "id": 4851478926, "lat": 52.3571177, "lon": 4.8907718, "tags": {"name": "Marie Heinekenplein", "public_transport": "stop_position", "railway": "tram_stop", "tram": "yes", "wheelchair": "yes", "wikidata": "Q111442647"}}, {"type": "node", "id": 4957591472, "lat": 52.3442966, "lon": 4.8509865, "tags": {"name": "Jan Wilsbrug", "public_transport": "stop_position", "railway": "tram_stop", "tram": "yes"}}, {"type": "node", "id": 4957591524, "lat": 52.3013966, "lon": 4.8477382, "tags": {"name": "Station Amstelveen", "public_transport": "stop_position", "railway": "tram_stop", "tram": "yes"}}, {"type": "node", "id": 4957591538, "lat": 52.2994491, "lon": 4.8453672, "tags": {"name": "Handweg", "public_transport": "stop_position", "railway": "tram_stop", "tram": "yes"}}, {"type": "node", "id": 4957592283, "lat": 52.3492921, "lon": 4.8564164, "tags": {"name": "Haarlemmermeerstation", "public_transport": "stop_position", "railway": "tram_stop", "tram": "yes"}}, {"type": "node", "id": 4957592307, "lat": 52.3214358, "lon": 4.8564951, "tags": {"name": "Kalfjeslaan", "public_transport": "stop_position", "railway": "tram_stop", "tram": "yes"}}, {"type": "node", "id": 4957592331, "lat": 52.3274177, "lon": 4.8565395, "tags": {"name": "Van Nijenrodeweg", "public_transport": "stop_position", "railway": "tram_stop", "tram": "yes"}}, {"type": "node", "id": 4957592436, "lat": 52.3085646, "lon": 4.8506593, "tags": {"name": "Molenweg", "public_transport": "stop_position", "railway": "tram_stop", "tram": "yes"}}, {"type": "node", "id": 4957592454, "lat": 52.3109438, "lon": 4.8507838, "tags": {"name": "Karselaan", "public_transport": "stop_position", "railway": "tram_stop", "tram": "yes"}}, {"type": "node", "id": 4957592461, "lat": 52.3115129, "lon": 4.851035, "tags": {"name": "Karselaan", "public_transport": "stop_position", "railway": "tram_stop", "tram": "yes"}}, {"type": "node", "id": 4957592561, "lat": 52.3475341, "lon": 4.8534016, "tags": {"name": "Remise Karperweg", "public_transport": "stop_position", "railway": "tram_stop", "tram": "yes"}}, {"type": "node", "id": 4957593819, "lat": 52.2908393, "lon": 4.8391034, "tags": {"name": "Bovenkerk", "public_transport": "stop_position", "railway": "tram_stop", "tram": "yes"}}, {"type": "node", "id": 4957593836, "lat": 52.2910359, "lon": 4.8391796, "tags": {"name": "Bovenkerk", "public_transport": "stop_position", "railway": "tram_stop", "tram": "yes"}}, {"type": "node", "id": 5004454871, "lat": 52.3632085, "lon": 4.8810698, "tags": {"name": "Leidseplein", "network": "Stadsvervoer Amsterdam", "network:wikidata": "Q108742702", "operator": "GVB", "operator:wikidata": "Q1808041", "public_transport": "stop_position", "railway": "tram_stop", "tram": "yes", "wikidata": "Q111291262"}}, {"type": "node", "id": 5162821556, "lat": 52.3408165, "lon": 4.8731849, "tags": {"name": "Station Zuid", "public_transport": "stop_position", "railway": "tram_stop", "ref": "D", "ref:IFOPT": "NL:Q:30007269", "tram": "yes", "wheelchair": "yes", "wikidata": "Q101195703"}}, {"type": "node", "id": 5399178947, "lat": 52.3620972, "lon": 4.898949, "tags": {"name": "Prinsengracht", "public_transport": "stop_position", "railway": "tram_stop", "tram": "yes", "wheelchair": "yes", "wikidata": "Q111336153"}}, {"type": "node", "id": 5399178948, "lat": 52.3621338, "lon": 4.8989773, "tags": {"name": "Prinsengracht", "public_transport": "stop_position", "railway": "tram_stop", "tram": "yes", "wheelchair": "yes", "wikidata": "Q111336153"}}, {"type": "node", "id": 5487043827, "lat": 52.3364299, "lon": 4.9697229, "tags": {"name": "Sniep", "public_transport": "stop_position", "railway": "tram_stop", "ref:IFOPT": "NL:Q:30000453", "tram": "yes", "wikidata": "Q111422382"}}, {"type": "node", "id": 5509458843, "lat": 52.347445, "lon": 4.9178945, "tags": {"name": "Amstelstation", "public_transport": "stop_position", "railway": "tram_stop", "ref:IFOPT": "NL:Q:30009014", "tram": "yes"}}, {"type": "node", "id": 5792105369, "lat": 52.3596835, "lon": 4.9000102, "tags": {"name": "Frederiksplein", "public_transport": "stop_position", "railway": "tram_stop", "tram": "yes", "wheelchair": "yes", "wikidata": "Q111286556"}}, {"type": "node", "id": 5792762173, "lat": 52.3594772, "lon": 4.8925358, "tags": {"name": "Vijzelgracht", "old_name": "Weteringcircuit", "public_transport": "stop_position", "railway": "tram_stop", "tram": "yes", "wheelchair": "yes", "wikidata": "Q111286557"}}, {"type": "node", "id": 6536976362, "lat": 52.3382375, "lon": 4.9613021, "tags": {"name": "Diemerbrug", "public_transport": "stop_position", "railway": "tram_stop", "tram": "yes", "wikidata": "Q111434567"}}, {"type": "node", "id": 6578508136, "lat": 52.3706445, "lon": 4.8703967, "tags": {"name": "De Clercqstraat", "public_transport": "stop_position", "railway": "tram_stop", "tram": "yes", "wheelchair": "yes", "wikidata": "Q111307980"}},